{"displayFieldName":"","fieldAliases":{"FID":"FID","Rotation":"Rotation","Scale":"Scale","name_of_to":"name_of_to","district":"district","state":"state","ELEVATION":"ELEVATION","Lat":"Lat","Long":"Long"},"geometryType":"esriGeometryPoint","spatialReference":{"wkt":"PROJCS[\"LCC_WGS84\",GEOGCS[\"GCS_WGS_1984\",DATUM[\"D_WGS_1984\",SPHEROID[\"WGS_1984\",6378137.0,298.257223563]],PRIMEM[\"Greenwich\",0.0],UNIT[\"Degree\",0.0174532925199433]],PROJECTION[\"Lambert_Conformal_Conic\"],PARAMETER[\"False_Easting\",4000000.0],PARAMETER[\"False_Northing\",4000000.0],PARAMETER[\"Central_Meridian\",80.0],PARAMETER[\"Standard_Parallel_1\",12.472944],PARAMETER[\"Standard_Parallel_2\",35.172806],PARAMETER[\"Scale_Factor\",1.0],PARAMETER[\"Latitude_Of_Origin\",24.0],UNIT[\"Meter\",1.0]]"},"fields":[{"name":"FID","type":"esriFieldTypeOID","alias":"FID"},{"name":"Rotation","type":"esriFieldTypeInteger","alias":"Rotation"},{"name":"Scale","type":"esriFieldTypeDouble","alias":"Scale"},{"name":"name_of_to","type":"esriFieldTypeString","alias":"name_of_to","length":50},{"name":"district","type":"esriFieldTypeString","alias":"district","length":50},{"name":"state","type":"esriFieldTypeString","alias":"state","length":50},{"name":"ELEVATION","type":"esriFieldTypeInteger","alias":"ELEVATION"},{"name":"Lat","type":"esriFieldTypeSingle","alias":"Lat"},{"name":"Long","type":"esriFieldTypeSingle","alias":"Long"}],"features":[{"attributes":{"FID":0,"Rotation":0,"Scale":0,"name_of_to":"SUKHANI","district":"KISHANGANJ","state":"BIHAR","ELEVATION":0,"Lat":26.353200912475586,"Long":88.013496398925781},"geometry":{"x":4784548.2371999994,"y":4277990.0254999995}},{"attributes":{"FID":1,"Rotation":0,"Scale":0,"name_of_to":"KANKIP","district":"KISHANGANJ","state":"BIHAR","ELEVATION":0,"Lat":26.009000778198242,"Long":87.839897155761719},"geometry":{"x":4769647.9328000024,"y":4239679.5892999992}},{"attributes":{"FID":2,"Rotation":0,"Scale":0,"name_of_to":"MATHURAPUR","district":"KATIHAR","state":"BIHAR","ELEVATION":0,"Lat":25.550199508666992,"Long":88.029701232910156},"geometry":{"x":4791108.0521000028,"y":4190938.9026000015}},{"attributes":{"FID":3,"Rotation":0,"Scale":0,"name_of_to":"KHUSROPUR","district":"PATNA","state":"BIHAR","ELEVATION":0,"Lat":25.46190071105957,"Long":85.397903442382812},"geometry":{"x":4532344.8219000027,"y":4168999.4862000011}},{"attributes":{"FID":4,"Rotation":0,"Scale":0,"name_of_to":"SARAI","district":"SHEIKHPURA","state":"BIHAR","ELEVATION":0,"Lat":25.140499114990234,"Long":85.955596923828125},"geometry":{"x":4588785.3835999966,"y":4136318.9026999995}},{"attributes":{"FID":5,"Rotation":0,"Scale":0,"name_of_to":"TARAPUR","district":"MUNGER","state":"BIHAR","ELEVATION":0,"Lat":25.087600708007812,"Long":86.65679931640625},"geometry":{"x":4658326.2091000006,"y":4133688.6286999993}},{"attributes":{"FID":6,"Rotation":0,"Scale":0,"name_of_to":"RAMPUR","district":"PASHCHIMI CHAMPARAN","state":"BIHAR","ELEVATION":0,"Lat":27.22599983215332,"Long":84.653900146484375},"geometry":{"x":4452664.4851000011,"y":4358091.9281000011}},{"attributes":{"FID":7,"Rotation":0,"Scale":0,"name_of_to":"MAINATANR","district":"PASHCHIMI CHAMPARAN","state":"BIHAR","ELEVATION":0,"Lat":27.093700408935547,"Long":84.646499633789062},"geometry":{"x":4452414.4381000027,"y":4343681.7655000016}},{"attributes":{"FID":8,"Rotation":0,"Scale":0,"name_of_to":"KUKURHA","district":"PASHCHIMI CHAMPARAN","state":"BIHAR","ELEVATION":0,"Lat":27.181699752807617,"Long":84.56390380859375},"geometry":{"x":4444064.3703000024,"y":4352981.8962999992}},{"attributes":{"FID":9,"Rotation":0,"Scale":0,"name_of_to":"AMOLWA","district":"PASHCHIMI CHAMPARAN","state":"BIHAR","ELEVATION":0,"Lat":27.198699951171875,"Long":84.507102966308594},"geometry":{"x":4438484.3144999966,"y":4354651.935899999}},{"attributes":{"FID":10,"Rotation":0,"Scale":0,"name_of_to":"GAWNAHA","district":"PASHCHIMI CHAMPARAN","state":"BIHAR","ELEVATION":0,"Lat":27.273399353027344,"Long":84.5198974609375},"geometry":{"x":4439464.3410999998,"y":4362822.0225999989}},{"attributes":{"FID":11,"Rotation":0,"Scale":0,"name_of_to":"GOBARDHANA","district":"PASHCHIMI CHAMPARAN","state":"BIHAR","ELEVATION":0,"Lat":27.321199417114258,"Long":84.316902160644531},"geometry":{"x":4419574.1331999972,"y":4367402.1301999986}},{"attributes":{"FID":12,"Rotation":0,"Scale":0,"name_of_to":"RAMNAGAR","district":"PASHCHIMI CHAMPARAN","state":"BIHAR","ELEVATION":0,"Lat":27.170200347900391,"Long":84.319099426269531},"geometry":{"x":4420294.0979000032,"y":4350981.9463}},{"attributes":{"FID":13,"Rotation":0,"Scale":0,"name_of_to":"HARNATANR","district":"PASHCHIMI CHAMPARAN","state":"BIHAR","ELEVATION":0,"Lat":27.305299758911133,"Long":84.027999877929688},"geometry":{"x":4391553.8122999966,"y":4364842.180399999}},{"attributes":{"FID":14,"Rotation":0,"Scale":0,"name_of_to":"PATILAR","district":"PASHCHIMI CHAMPARAN","state":"BIHAR","ELEVATION":0,"Lat":27.036699295043945,"Long":84.208702087402344},"geometry":{"x":4409983.9381999969,"y":4336141.8031000011}},{"attributes":{"FID":15,"Rotation":0,"Scale":0,"name_of_to":"DHANAHA","district":"PASHCHIMI CHAMPARAN","state":"BIHAR","ELEVATION":0,"Lat":26.978900909423828,"Long":84.137001037597656},"geometry":{"x":4403193.8378999978,"y":4329641.7496000007}},{"attributes":{"FID":16,"Rotation":0,"Scale":0,"name_of_to":"BHAUNRA","district":"PASHCHIMI CHAMPARAN","state":"BIHAR","ELEVATION":0,"Lat":27.022300720214844,"Long":84.648597717285156},"geometry":{"x":4452874.4183999971,"y":4335921.680399999}},{"attributes":{"FID":17,"Rotation":0,"Scale":0,"name_of_to":"LAURIYA NANDANGARH","district":"PASHCHIMI CHAMPARAN","state":"BIHAR","ELEVATION":0,"Lat":26.987899780273438,"Long":84.406097412109375},"geometry":{"x":4429374.1407999992,"y":4331421.6920000017}},{"attributes":{"FID":18,"Rotation":0,"Scale":0,"name_of_to":"CHUHARI","district":"PASHCHIMI CHAMPARAN","state":"BIHAR","ELEVATION":0,"Lat":26.899200439453125,"Long":84.473396301269531},"geometry":{"x":4436244.1909999996,"y":4321981.5621999986}},{"attributes":{"FID":19,"Rotation":0,"Scale":0,"name_of_to":"JOGAPATTI","district":"PASHCHIMI CHAMPARAN","state":"BIHAR","ELEVATION":0,"Lat":26.887500762939453,"Long":84.341400146484375},"geometry":{"x":4423414.0412999988,"y":4320311.5843000002}},{"attributes":{"FID":20,"Rotation":0,"Scale":0,"name_of_to":"MADHUBANI","district":"PASHCHIMI CHAMPARAN","state":"BIHAR","ELEVATION":0,"Lat":27.005100250244141,"Long":84.098602294921875},"geometry":{"x":4399363.8052999973,"y":4332381.7945999987}},{"attributes":{"FID":21,"Rotation":0,"Scale":0,"name_of_to":"KHAIRATOLA","district":"PASHCHIMI CHAMPARAN","state":"BIHAR","ELEVATION":0,"Lat":26.899799346923828,"Long":84.134498596191406},"geometry":{"x":4403193.8126000017,"y":4321041.6495999992}},{"attributes":{"FID":22,"Rotation":0,"Scale":0,"name_of_to":"KHTEA","district":"GOPALGANJ","state":"BIHAR","ELEVATION":0,"Lat":26.562900543212891,"Long":84.085403442382812},"geometry":{"x":4399473.6644999981,"y":4284271.247299999}},{"attributes":{"FID":23,"Rotation":0,"Scale":0,"name_of_to":"BHORE","district":"GOPALGANJ","state":"BIHAR","ELEVATION":0,"Lat":26.443399429321289,"Long":84.110801696777344},"geometry":{"x":4402333.6561999992,"y":4271351.0954999998}},{"attributes":{"FID":24,"Rotation":0,"Scale":0,"name_of_to":"THAKRAHA","district":"PASHCHIMI CHAMPARAN","state":"BIHAR","ELEVATION":0,"Lat":26.781400680541992,"Long":84.267501831054688},"geometry":{"x":4416553.931599997,"y":4308551.4697999991}},{"attributes":{"FID":25,"Rotation":0,"Scale":0,"name_of_to":"KUCHAIKOT","district":"GOPALGANJ","state":"BIHAR","ELEVATION":0,"Lat":26.569499969482422,"Long":84.291603088378906},"geometry":{"x":4419603.8932000026,"y":4285591.2023000009}},{"attributes":{"FID":26,"Rotation":0,"Scale":0,"name_of_to":"BARKAGAON","district":"GOPALGANJ","state":"BIHAR","ELEVATION":0,"Lat":26.41200065612793,"Long":84.255401611328125},"geometry":{"x":4416583.8087000027,"y":4268361.0108999982}},{"attributes":{"FID":27,"Rotation":0,"Scale":0,"name_of_to":"BARDAHA","district":"PASHCHIMI CHAMPARAN","state":"BIHAR","ELEVATION":0,"Lat":26.695400238037109,"Long":84.519096374511719},"geometry":{"x":4441404.1860999987,"y":4299971.2998999991}},{"attributes":{"FID":28,"Rotation":0,"Scale":0,"name_of_to":"MAJHWALIA","district":"PASHCHIMI CHAMPARAN","state":"BIHAR","ELEVATION":0,"Lat":26.812999725341797,"Long":84.616203308105469},"geometry":{"x":4450464.3281000033,"y":4313061.4199000001}},{"attributes":{"FID":29,"Rotation":0,"Scale":0,"name_of_to":"CHAMPAPUR","district":"PURBI CHAMPARAN","state":"BIHAR","ELEVATION":0,"Lat":26.894399642944336,"Long":84.840896606445312},"geometry":{"x":4472084.6023999974,"y":4322641.4701999985}},{"attributes":{"FID":30,"Rotation":0,"Scale":0,"name_of_to":"NARKATIA","district":"PURBI CHAMPARAN","state":"BIHAR","ELEVATION":0,"Lat":26.833099365234375,"Long":84.89959716796875},"geometry":{"x":4478034.6489999965,"y":4316181.379999999}},{"attributes":{"FID":31,"Rotation":0,"Scale":0,"name_of_to":"LAKHAURI","district":"PURBI CHAMPARAN","state":"BIHAR","ELEVATION":0,"Lat":26.752399444580078,"Long":84.972801208496094},"geometry":{"x":4485484.7113000005,"y":4307651.2575999983}},{"attributes":{"FID":32,"Rotation":0,"Scale":0,"name_of_to":"JIWDHARA","district":"PURBI CHAMPARAN","state":"BIHAR","ELEVATION":0,"Lat":26.584499359130859,"Long":84.906898498535156},"geometry":{"x":4479684.5881000012,"y":4289181.0582000017}},{"attributes":{"FID":33,"Rotation":0,"Scale":0,"name_of_to":"TURKAULIYA","district":"PURBI CHAMPARAN","state":"BIHAR","ELEVATION":0,"Lat":26.606800079345703,"Long":84.824600219726562},"geometry":{"x":4471564.5086999983,"y":4291331.1059999987}},{"attributes":{"FID":34,"Rotation":0,"Scale":0,"name_of_to":"PIPRA","district":"PURBI CHAMPARAN","state":"BIHAR","ELEVATION":0,"Lat":26.489999771118164,"Long":84.966300964355469},"geometry":{"x":4485854.6303000003,"y":4279110.9232000001}},{"attributes":{"FID":35,"Rotation":0,"Scale":0,"name_of_to":"GOBINDGANJ","district":"PURBI CHAMPARAN","state":"BIHAR","ELEVATION":0,"Lat":26.493999481201172,"Long":84.641700744628906},"geometry":{"x":4454094.2639999986,"y":4278471.0124000013}},{"attributes":{"FID":36,"Rotation":0,"Scale":0,"name_of_to":"SANGRAMPUR","district":"PURBI CHAMPARAN","state":"BIHAR","ELEVATION":0,"Lat":26.474199295043945,"Long":84.6885986328125},"geometry":{"x":4458754.3140999973,"y":4276460.9776999988}},{"attributes":{"FID":37,"Rotation":0,"Scale":0,"name_of_to":"SALEMPUR","district":"GOPALGANJ","state":"BIHAR","ELEVATION":0,"Lat":26.450799942016602,"Long":84.646202087402344},"geometry":{"x":4454694.2550999969,"y":4273780.9547000006}},{"attributes":{"FID":38,"Rotation":0,"Scale":0,"name_of_to":"SAGAULI","district":"PURBI CHAMPARAN","state":"BIHAR","ELEVATION":0,"Lat":26.771499633789062,"Long":84.7301025390625},"geometry":{"x":4461734.4412999973,"y":4308911.3454000019}},{"attributes":{"FID":39,"Rotation":0,"Scale":0,"name_of_to":"NONIYA","district":"PURBI CHAMPARAN","state":"BIHAR","ELEVATION":0,"Lat":26.675600051879883,"Long":84.629898071289062},"geometry":{"x":4452294.3074999973,"y":4298161.2487000003}},{"attributes":{"FID":40,"Rotation":0,"Scale":0,"name_of_to":"GUNJRAULTYA","district":"PURBI CHAMPARAN","state":"BIHAR","ELEVATION":0,"Lat":26.57390022277832,"Long":84.560401916503906},"geometry":{"x":4445864.1928000003,"y":4286891.1339000016}},{"attributes":{"FID":41,"Rotation":0,"Scale":0,"name_of_to":"GHOIASAHAN","district":"PURBI CHAMPARAN","state":"BIHAR","ELEVATION":0,"Lat":26.823299407958984,"Long":85.138397216796875},"geometry":{"x":4501364.9226000011,"y":4315941.3084000014}},{"attributes":{"FID":42,"Rotation":0,"Scale":0,"name_of_to":"BELSAND","district":"SITAMARHI","state":"BIHAR","ELEVATION":0,"Lat":26.443000793457031,"Long":85.400703430175781},"geometry":{"x":4528525.1218999997,"y":4275570.7520000003}},{"attributes":{"FID":43,"Rotation":0,"Scale":0,"name_of_to":"RIGA","district":"SITAMARHI","state":"BIHAR","ELEVATION":0,"Lat":26.643800735473633,"Long":85.440597534179688},"geometry":{"x":4531585.2217999995,"y":4297541.0029000007}},{"attributes":{"FID":44,"Rotation":0,"Scale":0,"name_of_to":"BHUTAHI","district":"SITAMARHI","state":"BIHAR","ELEVATION":0,"Lat":26.735000610351562,"Long":85.544097900390625},"geometry":{"x":4541305.3620999977,"y":4307851.0964000002}},{"attributes":{"FID":45,"Rotation":0,"Scale":0,"name_of_to":"MADHUBAN","district":"PURBI CHAMPARAN","state":"BIHAR","ELEVATION":0,"Lat":26.439699172973633,"Long":85.136497497558594},"geometry":{"x":4502694.8100999966,"y":4274240.8189000003}},{"attributes":{"FID":46,"Rotation":0,"Scale":0,"name_of_to":"JALE","district":"DARBHANGA","state":"BIHAR","ELEVATION":0,"Lat":26.386499404907227,"Long":85.722503662109375},"geometry":{"x":4560255.4798000008,"y":4270670.6028000005}},{"attributes":{"FID":47,"Rotation":0,"Scale":0,"name_of_to":"JOGIARA","district":"DARBHANGA","state":"BIHAR","ELEVATION":0,"Lat":26.409599304199219,"Long":85.753700256347656},"geometry":{"x":4563205.5191000029,"y":4273310.620099999}},{"attributes":{"FID":48,"Rotation":0,"Scale":0,"name_of_to":"CHARAUT","district":"SITAMARHI","state":"BIHAR","ELEVATION":0,"Lat":26.527599334716797,"Long":85.791999816894531},"geometry":{"x":4566425.5925000012,"y":4286280.7648999989}},{"attributes":{"FID":49,"Rotation":0,"Scale":0,"name_of_to":"SURSAND","district":"SITAMARHI","state":"BIHAR","ELEVATION":0,"Lat":26.641199111938477,"Long":85.714698791503906},"geometry":{"x":4558365.5385999978,"y":4298320.9349000007}},{"attributes":{"FID":50,"Rotation":0,"Scale":0,"name_of_to":"BATHNAHA","district":"SITAMARHI","state":"BIHAR","ELEVATION":0,"Lat":26.63279914855957,"Long":85.573097229003906},"geometry":{"x":4544575.3690000027,"y":4296850.9609000012}},{"attributes":{"FID":51,"Rotation":0,"Scale":0,"name_of_to":"PARIHARPUR","district":"SITAMARHI","state":"BIHAR","ELEVATION":0,"Lat":26.714500427246094,"Long":85.669296264648438},"geometry":{"x":4553615.5051999986,"y":4306101.0403999984}},{"attributes":{"FID":52,"Rotation":0,"Scale":0,"name_of_to":"BELA","district":"SITAMARHI","state":"BIHAR","ELEVATION":0,"Lat":26.789100646972656,"Long":85.717498779296875},"geometry":{"x":4557985.5782999992,"y":4314401.1292999983}},{"attributes":{"FID":53,"Rotation":0,"Scale":0,"name_of_to":"MADHWAPUR","district":"MADHUBANI","state":"BIHAR","ELEVATION":0,"Lat":26.59480094909668,"Long":85.844200134277344},"geometry":{"x":4571225.6753999963,"y":4293790.8394999988}},{"attributes":{"FID":54,"Rotation":0,"Scale":0,"name_of_to":"DUMRA","district":"SITAMARHI","state":"BIHAR","ELEVATION":0,"Lat":26.387500762939453,"Long":85.390800476074219},"geometry":{"x":4527795.0895000026,"y":4269500.6812999994}},{"attributes":{"FID":55,"Rotation":0,"Scale":0,"name_of_to":"RUNNI","district":"SITAMARHI","state":"BIHAR","ELEVATION":0,"Lat":26.373600006103516,"Long":85.489700317382812},"geometry":{"x":4537525.1988999993,"y":4268370.6420999989}},{"attributes":{"FID":56,"Rotation":0,"Scale":0,"name_of_to":"KOILI","district":"SITAMARHI","state":"BIHAR","ELEVATION":0,"Lat":26.436500549316406,"Long":85.641098022460938},"geometry":{"x":4552075.3918000013,"y":4275780.6854999997}},{"attributes":{"FID":57,"Rotation":0,"Scale":0,"name_of_to":"KHIRHAR","district":"MADHUBANI","state":"BIHAR","ELEVATION":0,"Lat":26.514799118041992,"Long":85.958297729492188},"geometry":{"x":4582735.7851999998,"y":4285570.7076000012}},{"attributes":{"FID":58,"Rotation":0,"Scale":0,"name_of_to":"SAHAR","district":"MADHUBANI","state":"BIHAR","ELEVATION":0,"Lat":26.537799835205078,"Long":85.861000061035156},"geometry":{"x":4573125.6750999987,"y":4287670.7637999989}},{"attributes":{"FID":59,"Rotation":0,"Scale":0,"name_of_to":"KAMTAUL","district":"DARBHANGA","state":"BIHAR","ELEVATION":0,"Lat":26.33650016784668,"Long":85.8218994140625},"geometry":{"x":4570205.5772999972,"y":4265640.5102999993}},{"attributes":{"FID":60,"Rotation":0,"Scale":0,"name_of_to":"BAZPATTI","district":"SITAMARHI","state":"BIHAR","ELEVATION":0,"Lat":26.552299499511719,"Long":85.615798950195312},"geometry":{"x":4549095.3982999995,"y":4288270.8403999992}},{"attributes":{"FID":61,"Rotation":0,"Scale":0,"name_of_to":"HARLAKHI","district":"MADHUBANI","state":"BIHAR","ELEVATION":0,"Lat":26.630699157714844,"Long":85.981597900390625},"geometry":{"x":4584475.8401999995,"y":4298260.8597999997}},{"attributes":{"FID":62,"Rotation":0,"Scale":0,"name_of_to":"BASOPATTI","district":"MADHUBANI","state":"BIHAR","ELEVATION":0,"Lat":26.583400726318359,"Long":86.013298034667969},"geometry":{"x":4587795.8696999997,"y":4293250.7842999995}},{"attributes":{"FID":63,"Rotation":0,"Scale":0,"name_of_to":"MANIARWA","district":"MADHUBANI","state":"BIHAR","ELEVATION":0,"Lat":26.482200622558594,"Long":86.150596618652344},"geometry":{"x":4601686.007600002,"y":4282840.6185999997}},{"attributes":{"FID":64,"Rotation":0,"Scale":0,"name_of_to":"SELIBELI","district":"MADHUBANI","state":"BIHAR","ELEVATION":0,"Lat":26.528999328613281,"Long":86.087997436523438},"geometry":{"x":4595345.9443000033,"y":4287660.6957999989}},{"attributes":{"FID":65,"Rotation":0,"Scale":0,"name_of_to":"BARHI","district":"MADHUBANI","state":"BIHAR","ELEVATION":0,"Lat":26.464399337768555,"Long":86.279800415039062},"geometry":{"x":4614406.1525999978,"y":4281460.5647}},{"attributes":{"FID":66,"Rotation":0,"Scale":0,"name_of_to":"RAINAGAR","district":"MADHUBANI","state":"BIHAR","ELEVATION":0,"Lat":26.403600692749023,"Long":86.177001953125},"geometry":{"x":4604646.016900003,"y":4274410.5146000013}},{"attributes":{"FID":67,"Rotation":0,"Scale":0,"name_of_to":"KHUTAUNA","district":"MADHUBANI","state":"BIHAR","ELEVATION":0,"Lat":26.503499984741211,"Long":86.394096374511719},"geometry":{"x":4625386.2981000021,"y":4286210.5898000002}},{"attributes":{"FID":68,"Rotation":0,"Scale":0,"name_of_to":"ANDHRA TARHI","district":"MADHUBANI","state":"BIHAR","ELEVATION":0,"Lat":26.382900238037109,"Long":86.334297180175781},"geometry":{"x":4620126.1942000017,"y":4272850.4470999986}},{"attributes":{"FID":69,"Rotation":0,"Scale":0,"name_of_to":"LADANIA","district":"MADHUBANI","state":"BIHAR","ELEVATION":0,"Lat":26.597200393676758,"Long":86.322799682617188},"geometry":{"x":4617956.2409999967,"y":4296070.7362999991}},{"attributes":{"FID":70,"Rotation":0,"Scale":0,"name_of_to":"LAUKAHI","district":"MADHUBANI","state":"BIHAR","ELEVATION":0,"Lat":26.483999252319336,"Long":86.558601379394531},"geometry":{"x":4641566.4919999987,"y":4284830.5260000005}},{"attributes":{"FID":71,"Rotation":0,"Scale":0,"name_of_to":"NARAHIA","district":"MADHUBANI","state":"BIHAR","ELEVATION":0,"Lat":26.369400024414062,"Long":86.537101745605469},"geometry":{"x":4640036.4331,"y":4272290.3841999993}},{"attributes":{"FID":72,"Rotation":0,"Scale":0,"name_of_to":"SISWAR","district":"MADHUBANI","state":"BIHAR","ELEVATION":0,"Lat":26.442300796508789,"Long":86.456398010253906},"geometry":{"x":4631776.3539000005,"y":4279840.5012999997}},{"attributes":{"FID":73,"Rotation":0,"Scale":0,"name_of_to":"LAUKAHA","district":"MADHUBANI","state":"BIHAR","ELEVATION":0,"Lat":26.54319953918457,"Long":86.455101013183594},"geometry":{"x":4631146.3808000013,"y":4290800.6306999996}},{"attributes":{"FID":74,"Rotation":0,"Scale":0,"name_of_to":"RAHARIA","district":"SUPAUL","state":"BIHAR","ELEVATION":0,"Lat":26.333700180053711,"Long":86.661102294921875},"geometry":{"x":4652356.5703999996,"y":4268980.3051000014}},{"attributes":{"FID":75,"Rotation":0,"Scale":0,"name_of_to":"BHAPTIAHI","district":"SUPAUL","state":"BIHAR","ELEVATION":0,"Lat":26.319900512695312,"Long":86.725997924804688},"geometry":{"x":4658776.6497000009,"y":4267780.2743999995}},{"attributes":{"FID":76,"Rotation":0,"Scale":0,"name_of_to":"DAGMARA","district":"SUPAUL","state":"BIHAR","ELEVATION":0,"Lat":26.395000457763672,"Long":86.750900268554688},"geometry":{"x":4660826.6978999972,"y":4276050.3654000014}},{"attributes":{"FID":77,"Rotation":0,"Scale":0,"name_of_to":"TERHI BAZAR","district":"SUPAUL","state":"BIHAR","ELEVATION":0,"Lat":26.426900863647461,"Long":86.85479736328125},"geometry":{"x":4670816.8277999982,"y":4280010.3808999993}},{"attributes":{"FID":78,"Rotation":0,"Scale":0,"name_of_to":"GHURNA","district":"ARARIA","state":"BIHAR","ELEVATION":0,"Lat":26.47089958190918,"Long":87.068702697753906},"geometry":{"x":4691497.0970999971,"y":4285820.3960999995}},{"attributes":{"FID":79,"Rotation":0,"Scale":0,"name_of_to":"MADHURA","district":"ARARIA","state":"BIHAR","ELEVATION":0,"Lat":26.346000671386719,"Long":87.090103149414062},"geometry":{"x":4694267.0938000008,"y":4272360.2252000012}},{"attributes":{"FID":80,"Rotation":0,"Scale":0,"name_of_to":"SONAPUR","district":"ARARIA","state":"BIHAR","ELEVATION":0,"Lat":26.382499694824219,"Long":87.195899963378906},"geometry":{"x":4704417.2346000001,"y":4276850.2452000007}},{"attributes":{"FID":81,"Rotation":0,"Scale":0,"name_of_to":"BATHNAHA","district":"ARARIA","state":"BIHAR","ELEVATION":0,"Lat":26.350200653076172,"Long":87.239799499511719},"geometry":{"x":4708887.2776999995,"y":4273570.1966000013}},{"attributes":{"FID":82,"Rotation":0,"Scale":0,"name_of_to":"JOGBANI","district":"ARARIA","state":"BIHAR","ELEVATION":0,"Lat":26.407699584960938,"Long":87.250801086425781},"geometry":{"x":4709647.3018999994,"y":4279870.2727000006}},{"attributes":{"FID":83,"Rotation":0,"Scale":0,"name_of_to":"AMHARA","district":"ARARIA","state":"BIHAR","ELEVATION":0,"Lat":26.291900634765625,"Long":87.321800231933594},"geometry":{"x":4717237.3627000004,"y":4267650.0923000015}},{"attributes":{"FID":84,"Rotation":0,"Scale":0,"name_of_to":"KUARI","district":"ARARIA","state":"BIHAR","ELEVATION":0,"Lat":26.412099838256836,"Long":87.435501098632812},"geometry":{"x":4727677.5314000025,"y":4281290.2311999984}},{"attributes":{"FID":85,"Rotation":0,"Scale":0,"name_of_to":"SIKTI","district":"ARARIA","state":"BIHAR","ELEVATION":0,"Lat":26.39739990234375,"Long":87.547698974609375},"geometry":{"x":4738737.6687999964,"y":4280270.1922999993}},{"attributes":{"FID":86,"Rotation":0,"Scale":0,"name_of_to":"MAHADDAPUR","district":"SUPAUL","state":"BIHAR","ELEVATION":0,"Lat":26.278900146484375,"Long":87.03289794921875},"geometry":{"x":4689037.0050999969,"y":4264800.1438999996}},{"attributes":{"FID":87,"Rotation":0,"Scale":0,"name_of_to":"CHHATAPUR","district":"SUPAUL","state":"BIHAR","ELEVATION":0,"Lat":26.225500106811523,"Long":87.006797790527344},"geometry":{"x":4686766.9645000026,"y":4258870.0771999992}},{"attributes":{"FID":88,"Rotation":0,"Scale":0,"name_of_to":"PARWAHA","district":"ARARIA","state":"BIHAR","ELEVATION":0,"Lat":26.231399536132812,"Long":87.208000183105469},"geometry":{"x":4706437.2110999972,"y":4260510.0359999985}},{"attributes":{"FID":89,"Rotation":0,"Scale":0,"name_of_to":"MADANPUR","district":"ARARIA","state":"BIHAR","ELEVATION":0,"Lat":26.206300735473633,"Long":87.498703002929688},"geometry":{"x":4735047.5568000004,"y":4259269.9367000014}},{"attributes":{"FID":90,"Rotation":0,"Scale":0,"name_of_to":"PALASI","district":"ARARIA","state":"BIHAR","ELEVATION":0,"Lat":26.236799240112305,"Long":87.561599731445312},"geometry":{"x":4741027.6464999989,"y":4262909.9649999999}},{"attributes":{"FID":91,"Rotation":0,"Scale":0,"name_of_to":"KALIAGANJ","district":"ARARIA","state":"BIHAR","ELEVATION":0,"Lat":26.323699951171875,"Long":87.614601135253906},"geometry":{"x":4745707.7329000011,"y":4272620.0751999989}},{"attributes":{"FID":92,"Rotation":0,"Scale":0,"name_of_to":"TULSHIA","district":"KISHANGANJ","state":"BIHAR","ELEVATION":0,"Lat":26.353000640869141,"Long":87.829902648925781},"geometry":{"x":4766598.0088,"y":4276960.0678000003}},{"attributes":{"FID":93,"Rotation":0,"Scale":0,"name_of_to":"BIBIGANJ","district":"KISHANGANJ","state":"BIHAR","ELEVATION":0,"Lat":26.321199417114258,"Long":87.713996887207031},"geometry":{"x":4755447.8567999974,"y":4272880.0476999991}},{"attributes":{"FID":94,"Rotation":0,"Scale":0,"name_of_to":"PAWAKHALI","district":"KISHANGANJ","state":"BIHAR","ELEVATION":0,"Lat":26.324300765991211,"Long":87.94580078125},"geometry":{"x":4778108.1441999972,"y":4274480.006099999}},{"attributes":{"FID":95,"Rotation":0,"Scale":0,"name_of_to":"DESHIATOLI","district":"KISHANGANJ","state":"BIHAR","ELEVATION":0,"Lat":26.245500564575195,"Long":87.914802551269531},"geometry":{"x":4775558.0890000015,"y":4265759.9039999992}},{"attributes":{"FID":96,"Rotation":0,"Scale":0,"name_of_to":"KASHIBARI","district":"KISHANGANJ","state":"BIHAR","ELEVATION":0,"Lat":26.179899215698242,"Long":87.853797912597656},"geometry":{"x":4769977.9913000017,"y":4258299.8222000003}},{"attributes":{"FID":97,"Rotation":0,"Scale":0,"name_of_to":"BAHADURGANJ","district":"KISHANGANJ","state":"BIHAR","ELEVATION":0,"Lat":26.27039909362793,"Long":87.815803527832031},"geometry":{"x":4765717.9703999981,"y":4267919.9530999996}},{"attributes":{"FID":98,"Rotation":0,"Scale":0,"name_of_to":"HALDIKHORA","district":"KISHANGANJ","state":"BIHAR","ELEVATION":0,"Lat":26.203100204467773,"Long":87.72979736328125},"geometry":{"x":4757697.8460000008,"y":4260149.8814000003}},{"attributes":{"FID":99,"Rotation":0,"Scale":0,"name_of_to":"JOKI HAT","district":"ARARIA","state":"BIHAR","ELEVATION":0,"Lat":26.15369987487793,"Long":87.6072998046875},"geometry":{"x":4745987.6843999997,"y":4254129.8429000005}},{"attributes":{"FID":100,"Rotation":0,"Scale":0,"name_of_to":"SUKHANI","district":"KISHANGANJ","state":"BIHAR","ELEVATION":0,"Lat":26.353200912475586,"Long":88.013496398925781},"geometry":{"x":4784548.2371999994,"y":4277990.0254999995}},{"attributes":{"FID":101,"Rotation":0,"Scale":0,"name_of_to":"TAIAHPUR","district":"KISHANGANJ","state":"BIHAR","ELEVATION":0,"Lat":26.375999450683594,"Long":88.174400329589844},"geometry":{"x":4800138.4430999979,"y":4281370.0265000015}},{"attributes":{"FID":102,"Rotation":0,"Scale":0,"name_of_to":"KUTTIGOLA","district":"PURNIA","state":"BIHAR","ELEVATION":0,"Lat":26.093500137329102,"Long":87.845199584960938},"geometry":{"x":4769657.9632000029,"y":4248879.7067999989}},{"attributes":{"FID":103,"Rotation":0,"Scale":0,"name_of_to":"RAUTA","district":"PURNIA","state":"BIHAR","ELEVATION":0,"Lat":26.042600631713867,"Long":87.702003479003906},"geometry":{"x":4755927.7748000026,"y":4242569.6658999994}},{"attributes":{"FID":104,"Rotation":0,"Scale":0,"name_of_to":"KANKIP","district":"WEST DINAJPUR","state":"WEST BENGAL","ELEVATION":0,"Lat":26.009000778198242,"Long":87.839897155761719},"geometry":{"x":4769647.9328000024,"y":4239679.5892999992}},{"attributes":{"FID":105,"Rotation":0,"Scale":0,"name_of_to":"AMOUR","district":"PURNIA","state":"BIHAR","ELEVATION":0,"Lat":25.962799072265625,"Long":87.720802307128906},"geometry":{"x":4758247.7766999975,"y":4234009.5498999991}},{"attributes":{"FID":106,"Rotation":0,"Scale":0,"name_of_to":"KUMARI","district":"KATIHAR","state":"BIHAR","ELEVATION":0,"Lat":25.648300170898438,"Long":87.71710205078125},"geometry":{"x":4759757.6872000024,"y":4199869.1180999987}},{"attributes":{"FID":107,"Rotation":0,"Scale":0,"name_of_to":"SONAILI BAZAR","district":"KATIHAR","state":"BIHAR","ELEVATION":0,"Lat":25.607000350952148,"Long":87.714103698730469},"geometry":{"x":4759707.6680999994,"y":4195369.056499999}},{"attributes":{"FID":108,"Rotation":0,"Scale":0,"name_of_to":"AZAMNAGAR","district":"KATIHAR","state":"BIHAR","ELEVATION":0,"Lat":25.540599822998047,"Long":87.829498291015625},"geometry":{"x":4771457.8016000018,"y":4188788.9406000003}},{"attributes":{"FID":109,"Rotation":0,"Scale":0,"name_of_to":"SALMARI","district":"KATIHAR","state":"BIHAR","ELEVATION":0,"Lat":25.623699188232422,"Long":87.840400695800781},"geometry":{"x":4772027.8374999985,"y":4197869.0502000004}},{"attributes":{"FID":110,"Rotation":0,"Scale":0,"name_of_to":"MATHURAPUR","district":"KATIHAR","state":"BIHAR","ELEVATION":0,"Lat":25.550199508666992,"Long":88.029701232910156},"geometry":{"x":4791108.0521000028,"y":4190938.9026000015}},{"attributes":{"FID":111,"Rotation":0,"Scale":0,"name_of_to":"RAUTARA","district":"KATIHAR","state":"BIHAR","ELEVATION":0,"Lat":25.664400100708008,"Long":87.556503295898438},"geometry":{"x":4743867.4930000007,"y":4200759.1755999997}},{"attributes":{"FID":112,"Rotation":0,"Scale":0,"name_of_to":"JALALGARH","district":"PURNIA","state":"BIHAR","ELEVATION":0,"Lat":25.960100173950195,"Long":87.542098999023438},"geometry":{"x":4740727.5525999963,"y":4232769.5898000002}},{"attributes":{"FID":113,"Rotation":0,"Scale":0,"name_of_to":"GARH BANAILI","district":"PURNIA","state":"BIHAR","ELEVATION":0,"Lat":25.908500671386719,"Long":87.546096801757812},"geometry":{"x":4741427.5423000008,"y":4227189.5203999989}},{"attributes":{"FID":114,"Rotation":0,"Scale":0,"name_of_to":"KASBA","district":"PURNIA","state":"BIHAR","ELEVATION":0,"Lat":25.854299545288086,"Long":87.542999267578125},"geometry":{"x":4741437.5265000015,"y":4221289.4450999983}},{"attributes":{"FID":115,"Rotation":0,"Scale":0,"name_of_to":"KORA","district":"KATIHAR","state":"BIHAR","ELEVATION":0,"Lat":25.61720085144043,"Long":87.402099609375},"geometry":{"x":4728947.2883000001,"y":4194829.1490000002}},{"attributes":{"FID":116,"Rotation":0,"Scale":0,"name_of_to":"BARARI","district":"KATIHAR","state":"BIHAR","ELEVATION":0,"Lat":25.514999389648438,"Long":87.385696411132812},"geometry":{"x":4727917.2343999967,"y":4183649.0133000016}},{"attributes":{"FID":117,"Rotation":0,"Scale":0,"name_of_to":"SEMAPUR","district":"KATIHAR","state":"BIHAR","ELEVATION":0,"Lat":25.530500411987305,"Long":87.474296569824219},"geometry":{"x":4736557.3531000018,"y":4185789.0161000006}},{"attributes":{"FID":118,"Rotation":0,"Scale":0,"name_of_to":"MANSHAHI","district":"KATIHAR","state":"BIHAR","ELEVATION":0,"Lat":25.468399047851562,"Long":87.569900512695312},"geometry":{"x":4746327.4552000016,"y":4179558.9061999992}},{"attributes":{"FID":119,"Rotation":0,"Scale":0,"name_of_to":"SRINAGAR","district":"PURNIA","state":"BIHAR","ELEVATION":0,"Lat":25.934900283813477,"Long":87.417800903320312},"geometry":{"x":4728677.3941000029,"y":4229389.5819000006}},{"attributes":{"FID":120,"Rotation":0,"Scale":0,"name_of_to":"CHAMPANAGAR","district":"PURNIA","state":"BIHAR","ELEVATION":0,"Lat":25.906499862670898,"Long":87.33270263671875},"geometry":{"x":4720487.2802999988,"y":4225869.567499999}},{"attributes":{"FID":121,"Rotation":0,"Scale":0,"name_of_to":"POTHIA","district":"KATIHAR","state":"BIHAR","ELEVATION":0,"Lat":25.539199829101562,"Long":87.267997741699219},"geometry":{"x":4716197.0958999991,"y":4185669.0766999982}},{"attributes":{"FID":122,"Rotation":0,"Scale":0,"name_of_to":"CHAPRA","district":"PURNIA","state":"BIHAR","ELEVATION":0,"Lat":25.887899398803711,"Long":87.1322021484375},"geometry":{"x":4700907.0262999982,"y":4222839.5914999992}},{"attributes":{"FID":123,"Rotation":0,"Scale":0,"name_of_to":"BHAWANIPUR RAJDHAM","district":"PURNIA","state":"BIHAR","ELEVATION":0,"Lat":25.644699096679688,"Long":87.132400512695312},"geometry":{"x":4702266.9622000009,"y":4196439.2536999993}},{"attributes":{"FID":124,"Rotation":0,"Scale":0,"name_of_to":"RUPAULI","district":"PURNIA","state":"BIHAR","ELEVATION":0,"Lat":25.573400497436523,"Long":87.14849853515625},"geometry":{"x":4704236.9575000033,"y":4188779.1570999995}},{"attributes":{"FID":125,"Rotation":0,"Scale":0,"name_of_to":"CHAUSA","district":"MADHEPURA","state":"BIHAR","ELEVATION":0,"Lat":25.522699356079102,"Long":87.029998779296875},"geometry":{"x":4692846.7959000021,"y":4182689.1207000017}},{"attributes":{"FID":126,"Rotation":0,"Scale":0,"name_of_to":"PURAINI","district":"MADHEPURA","state":"BIHAR","ELEVATION":0,"Lat":25.608400344848633,"Long":86.983001708984375},"geometry":{"x":4687756.7621000037,"y":4191769.2459999993}},{"attributes":{"FID":127,"Rotation":0,"Scale":0,"name_of_to":"GOALPARA","district":"MADHEPURA","state":"BIHAR","ELEVATION":0,"Lat":25.759500503540039,"Long":86.890701293945312},"geometry":{"x":4677876.6978999972,"y":4207719.4787000008}},{"attributes":{"FID":128,"Rotation":0,"Scale":0,"name_of_to":"PATARGHAT","district":"SAHARSA","state":"BIHAR","ELEVATION":0,"Lat":25.815799713134766,"Long":86.7738037109375},"geometry":{"x":4666086.5713,"y":4213269.5826000012}},{"attributes":{"FID":129,"Rotation":0,"Scale":0,"name_of_to":"SINGHASWAR","district":"MADHEPUR","state":"BIHAR","ELEVATION":0,"Lat":25.979700088500977,"Long":86.798797607421875},"geometry":{"x":4667686.6429999992,"y":4231179.7947000004}},{"attributes":{"FID":130,"Rotation":0,"Scale":0,"name_of_to":"ALAMNAGAR","district":"MADHEPUR","state":"BIHAR","ELEVATION":0,"Lat":25.562200546264648,"Long":86.892501831054688},"geometry":{"x":4679096.6371999979,"y":4186309.2061999999}},{"attributes":{"FID":131,"Rotation":0,"Scale":0,"name_of_to":"PHULAUT","district":"MADHEPURA","state":"BIHAR","ELEVATION":0,"Lat":25.513200759887695,"Long":86.936698913574219},"geometry":{"x":4683716.6784000024,"y":4181209.1330000013}},{"attributes":{"FID":132,"Rotation":0,"Scale":0,"name_of_to":"KURSELA","district":"KATIHAR","state":"BIHAR","ELEVATION":0,"Lat":25.442300796508789,"Long":87.252296447753906},"geometry":{"x":4715187.0486999974,"y":4175078.9530000016}},{"attributes":{"FID":133,"Rotation":0,"Scale":0,"name_of_to":"CHAUTHAM","district":"KHAGARIA","state":"BIHAR","ELEVATION":0,"Lat":25.534999847412109,"Long":86.649497985839844},"geometry":{"x":4655316.3334999979,"y":4182209.2362999991}},{"attributes":{"FID":134,"Rotation":0,"Scale":0,"name_of_to":"DHAMHARAGHAT","district":"SAHARSA","state":"BIHAR","ELEVATION":0,"Lat":25.618600845336914,"Long":86.586196899414062},"geometry":{"x":4648656.2836000025,"y":4190989.3625999987}},{"attributes":{"FID":135,"Rotation":0,"Scale":0,"name_of_to":"KOPARIA","district":"SAHARSA","state":"BIHAR","ELEVATION":0,"Lat":25.653799057006836,"Long":86.602203369140625},"geometry":{"x":4650056.317900002,"y":4194879.4094999991}},{"attributes":{"FID":136,"Rotation":0,"Scale":0,"name_of_to":"SONBARSA RAJ","district":"SAHARSA","state":"BIHAR","ELEVATION":0,"Lat":25.704200744628906,"Long":86.713401794433594},"geometry":{"x":4660736.4677999988,"y":4200869.4466999993}},{"attributes":{"FID":137,"Rotation":0,"Scale":0,"name_of_to":"CHAPRAM","district":"SAHARSA","state":"BIHAR","ELEVATION":0,"Lat":25.783599853515625,"Long":86.51190185546875},"geometry":{"x":4640516.2444999963,"y":4208559.6081000008}},{"attributes":{"FID":138,"Rotation":0,"Scale":0,"name_of_to":"BAIJNATHPUR","district":"SAHARSA","state":"BIHAR","ELEVATION":0,"Lat":25.884799957275391,"Long":86.64739990234375},"geometry":{"x":4653316.4367000014,"y":4220169.7061999999}},{"attributes":{"FID":139,"Rotation":0,"Scale":0,"name_of_to":"BANGAON","district":"SAHARSA","state":"BIHAR","ELEVATION":0,"Lat":25.870399475097656,"Long":86.515403747558594},"geometry":{"x":4640426.2678999975,"y":4217999.7170999981}},{"attributes":{"FID":140,"Rotation":0,"Scale":0,"name_of_to":"RACHGACHHIA","district":"SAHARSA","state":"BIHAR","ELEVATION":0,"Lat":25.969900131225586,"Long":86.546302795410156},"geometry":{"x":4642956.3338999972,"y":4228939.8486000001}},{"attributes":{"FID":141,"Rotation":0,"Scale":0,"name_of_to":"SHANKARPUR","district":"MADHEPURA","state":"BIHAR","ELEVATION":0,"Lat":26.031400680541992,"Long":86.868202209472656},"geometry":{"x":4674226.7426000014,"y":4237129.8445000015}},{"attributes":{"FID":142,"Rotation":0,"Scale":0,"name_of_to":"GAMHARIA","district":"MADHEPURA","state":"BIHAR","ELEVATION":0,"Lat":26.059900283813477,"Long":86.724403381347656},"geometry":{"x":4659966.5732000023,"y":4239539.9226000011}},{"attributes":{"FID":143,"Rotation":0,"Scale":0,"name_of_to":"BISHUNPUR SUNDAR","district":"MADHEPURA","state":"BIHAR","ELEVATION":0,"Lat":26.054300308227539,"Long":86.98370361328125},"geometry":{"x":4685426.8932000026,"y":4240169.8495000005}},{"attributes":{"FID":144,"Rotation":0,"Scale":0,"name_of_to":"SUKHPUR","district":"SUPAUL","state":"BIHAR","ELEVATION":0,"Lat":26.064699172973633,"Long":86.549003601074219},"geometry":{"x":4642746.369599998,"y":4239249.9754000008}},{"attributes":{"FID":145,"Rotation":0,"Scale":0,"name_of_to":"GHANSHAMPUR","district":"DARBHANGA","state":"BIHAR","ELEVATION":0,"Lat":26.065299987792969,"Long":86.339698791503906},"geometry":{"x":4622216.1150999963,"y":4238380.0216000006}},{"attributes":{"FID":146,"Rotation":0,"Scale":0,"name_of_to":"MAHINAWAN","district":"DARBHANGA","state":"BIHAR","ELEVATION":0,"Lat":26.023000717163086,"Long":86.179603576660156},"geometry":{"x":4606715.9112000018,"y":4233080.0113999993}},{"attributes":{"FID":147,"Rotation":0,"Scale":0,"name_of_to":"HANTI","district":"DARBHANGA","state":"BIHAR","ELEVATION":0,"Lat":25.923900604248047,"Long":86.252197265625},"geometry":{"x":4614315.9746999964,"y":4222639.8621000014}},{"attributes":{"FID":148,"Rotation":0,"Scale":0,"name_of_to":"SUPAUL","district":"DARBHANGA","state":"BIHAR","ELEVATION":0,"Lat":25.956399917602539,"Long":86.267501831054688},"geometry":{"x":4615656.0002999976,"y":4226229.8977999985}},{"attributes":{"FID":149,"Rotation":0,"Scale":0,"name_of_to":"BACHANLI","district":"SAMASTIPUR","state":"BIHAR","ELEVATION":0,"Lat":25.821599960327148,"Long":86.272903442382812},"geometry":{"x":4616835.9685000032,"y":4211619.7197999991}},{"attributes":{"FID":150,"Rotation":0,"Scale":0,"name_of_to":"BITHAN","district":"SAMASTIPUR","state":"BIHAR","ELEVATION":0,"Lat":25.698699951171875,"Long":86.286102294921875},"geometry":{"x":4618735.9437000006,"y":4198339.5511000007}},{"attributes":{"FID":151,"Rotation":0,"Scale":0,"name_of_to":"SINGIA","district":"SAMASTIPUR","state":"BIHAR","ELEVATION":0,"Lat":25.847400665283203,"Long":86.160896301269531},"geometry":{"x":4605715.8413999975,"y":4213939.7822999991}},{"attributes":{"FID":152,"Rotation":0,"Scale":0,"name_of_to":"MARICHA","district":"SUPAUL","state":"BIHAR","ELEVATION":0,"Lat":26.072399139404297,"Long":86.487800598144531},"geometry":{"x":4636706.2956999987,"y":4239809.9978}},{"attributes":{"FID":153,"Rotation":0,"Scale":0,"name_of_to":"BAHERI","district":"DARBHANGA","state":"BIHAR","ELEVATION":0,"Lat":25.937599182128906,"Long":86.051902770996094},"geometry":{"x":4594575.7400000021,"y":4223269.9296999983}},{"attributes":{"FID":154,"Rotation":0,"Scale":0,"name_of_to":"WARISNAGAR","district":"SAMSTIPUR","state":"BIHAR","ELEVATION":0,"Lat":25.940299987792969,"Long":85.879997253417969},"geometry":{"x":4577685.5340000018,"y":4222839.9800999984}},{"attributes":{"FID":155,"Rotation":0,"Scale":0,"name_of_to":"KISHANPUR","district":"SAMASTIPUR","state":"BIHAR","ELEVATION":0,"Lat":25.929300308227539,"Long":85.827201843261719},"geometry":{"x":4572555.4662000015,"y":4221439.9750999995}},{"attributes":{"FID":156,"Rotation":0,"Scale":0,"name_of_to":"UJIARPUR","district":"SAMASTIPUR","state":"BIHAR","ELEVATION":0,"Lat":25.77549934387207,"Long":85.783096313476562},"geometry":{"x":4568905.373999998,"y":4204549.7901999988}},{"attributes":{"FID":157,"Rotation":0,"Scale":0,"name_of_to":"BATHUA","district":"SAMASTIPUR","state":"BIHAR","ELEVATION":0,"Lat":25.782199859619141,"Long":85.723098754882812},"geometry":{"x":4562985.2991999984,"y":4205039.8115000017}},{"attributes":{"FID":158,"Rotation":0,"Scale":0,"name_of_to":"TAJPUR","district":"SAMASTIPUR","state":"BIHAR","ELEVATION":0,"Lat":25.85460090637207,"Long":85.675003051757812},"geometry":{"x":4557935.2647999972,"y":4212709.9164999984}},{"attributes":{"FID":159,"Rotation":0,"Scale":0,"name_of_to":"PATEPUR","district":"VAISHALI","state":"BIHAR","ELEVATION":0,"Lat":25.867799758911133,"Long":85.559097290039062},"geometry":{"x":4546485.1335000023,"y":4213689.9657000005}},{"attributes":{"FID":160,"Rotation":0,"Scale":0,"name_of_to":"PUSA","district":"SAMASTIPUR","state":"BIHAR","ELEVATION":0,"Lat":25.979999542236328,"Long":85.68060302734375},"geometry":{"x":4557935.3083000034,"y":4226350.0861999989}},{"attributes":{"FID":161,"Rotation":0,"Scale":0,"name_of_to":"KUMAR BAZIDPUR","district":"VAISHALI","state":"BIHAR","ELEVATION":0,"Lat":25.829200744628906,"Long":85.550003051757812},"geometry":{"x":4545765.1164999977,"y":4209459.9213999994}},{"attributes":{"FID":162,"Rotation":0,"Scale":0,"name_of_to":"HAZRAT JANDAHA","district":"VAISHALI","state":"BIHAR","ELEVATION":0,"Lat":25.706399917602539,"Long":85.536102294921875},"geometry":{"x":4544915.0610999987,"y":4196069.761500001}},{"attributes":{"FID":163,"Rotation":0,"Scale":0,"name_of_to":"SAHDAR","district":"VAISHALI","state":"BIHAR","ELEVATION":0,"Lat":25.665500640869141,"Long":85.459701538085938},"geometry":{"x":4537574.9598999992,"y":4191339.7344000004}},{"attributes":{"FID":164,"Rotation":0,"Scale":0,"name_of_to":"DESARI","district":"VAISHALI","state":"BIHAR","ELEVATION":0,"Lat":25.670700073242188,"Long":85.405502319335938},"geometry":{"x":4532214.8971000016,"y":4191699.7536999993}},{"attributes":{"FID":165,"Rotation":0,"Scale":0,"name_of_to":"BHAGWANPUR","district":"VAISHALI","state":"BIHAR","ELEVATION":0,"Lat":25.862800598144531,"Long":85.317398071289062},"geometry":{"x":4522764.8568999991,"y":4212230.0302999988}},{"attributes":{"FID":166,"Rotation":0,"Scale":0,"name_of_to":"LALGANJ","district":"VAISHALI","state":"BIHAR","ELEVATION":0,"Lat":25.865499496459961,"Long":85.185600280761719},"geometry":{"x":4509794.7043000013,"y":4212040.0648000017}},{"attributes":{"FID":167,"Rotation":0,"Scale":0,"name_of_to":"BARIARPUR","district":"MUZAFFARPUR","state":"BIHAR","ELEVATION":0,"Lat":25.932600021362305,"Long":85.468902587890625},"geometry":{"x":4537355.0471000001,"y":4220380.0791000016}},{"attributes":{"FID":168,"Rotation":0,"Scale":0,"name_of_to":"GORAUL","district":"VAISHALI","state":"BIHAR","ELEVATION":0,"Lat":25.928600311279297,"Long":85.333000183105469},"geometry":{"x":4524024.8898999989,"y":4219430.1088999994}},{"attributes":{"FID":169,"Rotation":0,"Scale":0,"name_of_to":"KURHANI","district":"MUZAFFARPUR","state":"BIHAR","ELEVATION":0,"Lat":25.988199234008789,"Long":85.331100463867188},"geometry":{"x":4523594.9073999971,"y":4225900.186999999}},{"attributes":{"FID":170,"Rotation":0,"Scale":0,"name_of_to":"TURKI","district":"MUZAFFARPUR","state":"BIHAR","ELEVATION":0,"Lat":26.041900634765625,"Long":85.348396301269531},"geometry":{"x":4525064.9403999969,"y":4231800.2529999986}},{"attributes":{"FID":171,"Rotation":0,"Scale":0,"name_of_to":"SILAUT","district":"MUZAFFARPUR","state":"BIHAR","ELEVATION":0,"Lat":26.036300659179688,"Long":85.475601196289062},"geometry":{"x":4537575.0899000019,"y":4231670.2129999995}},{"attributes":{"FID":172,"Rotation":0,"Scale":0,"name_of_to":"SARIA","district":"SARAN","state":"BIHAR","ELEVATION":0,"Lat":25.831300735473633,"Long":85.142196655273438},"geometry":{"x":4505664.6387000009,"y":4208170.0337000005}},{"attributes":{"FID":173,"Rotation":0,"Scale":0,"name_of_to":"NAYAGAON","district":"SARAN","state":"BIHAR","ELEVATION":0,"Lat":25.761800765991211,"Long":85.09320068359375},"geometry":{"x":4501124.5623999983,"y":4200449.9567000009}},{"attributes":{"FID":174,"Rotation":0,"Scale":0,"name_of_to":"DIGHWARA","district":"SARAN","state":"BIHAR","ELEVATION":0,"Lat":25.74169921875,"Long":85.015098571777344},"geometry":{"x":4493524.4690999985,"y":4197989.9525999986}},{"attributes":{"FID":175,"Rotation":0,"Scale":0,"name_of_to":"SIRPAL BASANT","district":"SARAN","state":"BIHAR","ELEVATION":0,"Lat":25.802900314331055,"Long":84.954803466796875},"geometry":{"x":4487354.4170999974,"y":4204430.0494999997}},{"attributes":{"FID":176,"Rotation":0,"Scale":0,"name_of_to":"DORIGANJ","district":"SARAN","state":"BIHAR","ELEVATION":0,"Lat":25.739700317382812,"Long":84.826797485351562},"geometry":{"x":4475004.2449999973,"y":4197120.0047999993}},{"attributes":{"FID":177,"Rotation":0,"Scale":0,"name_of_to":"GARKHA","district":"SARAN","state":"BIHAR","ELEVATION":0,"Lat":25.82659912109375,"Long":84.858596801757812},"geometry":{"x":4477814.3122000024,"y":4206670.1108000018}},{"attributes":{"FID":178,"Rotation":0,"Scale":0,"name_of_to":"SAOBHEPUR","district":"SARAN","state":"BIHAR","ELEVATION":0,"Lat":25.873199462890625,"Long":84.921302795410156},"geometry":{"x":4483794.3946999982,"y":4211950.1506000012}},{"attributes":{"FID":179,"Rotation":0,"Scale":0,"name_of_to":"BHELDI","district":"SARAN","state":"BIHAR","ELEVATION":0,"Lat":25.902500152587891,"Long":84.945098876953125},"geometry":{"x":4486024.4328000024,"y":4215210.1796000004}},{"attributes":{"FID":180,"Rotation":0,"Scale":0,"name_of_to":"PARSA","district":"SARAN","state":"BIHAR","ELEVATION":0,"Lat":25.880800247192383,"Long":85.036399841308594},"geometry":{"x":4495074.5367000028,"y":4213170.1301000006}},{"attributes":{"FID":181,"Rotation":0,"Scale":0,"name_of_to":"MAKER","district":"SARAN","state":"BIHAR","ELEVATION":0,"Lat":25.957399368286133,"Long":85.040496826171875},"geometry":{"x":4495184.558799997,"y":4221510.2237000018}},{"attributes":{"FID":182,"Rotation":0,"Scale":0,"name_of_to":"DAUDNAGAR","district":"VAISHALI","state":"BIHAR","ELEVATION":0,"Lat":25.967399597167969,"Long":85.117202758789062},"geometry":{"x":4502674.6530999988,"y":4222860.2160999998}},{"attributes":{"FID":183,"Rotation":0,"Scale":0,"name_of_to":"BAKHRA","district":"MUZAFFARPUR","state":"BIHAR","ELEVATION":0,"Lat":26.026199340820312,"Long":85.099197387695312},"geometry":{"x":4500674.6469999999,"y":4229190.2958000004}},{"attributes":{"FID":184,"Rotation":0,"Scale":0,"name_of_to":"AMNAUR HARNARAYAN","district":"SARAN","state":"BIHAR","ELEVATION":0,"Lat":25.971599578857422,"Long":84.926803588867188},"geometry":{"x":4483964.431599997,"y":4222650.2718000002}},{"attributes":{"FID":185,"Rotation":0,"Scale":0,"name_of_to":"TARAIA","district":"SARAN","state":"BIHAR","ELEVATION":0,"Lat":26.069499969482422,"Long":84.881202697753906},"geometry":{"x":4479114.4091000035,"y":4233130.4101000018}},{"attributes":{"FID":186,"Rotation":0,"Scale":0,"name_of_to":"HUSSEPUR","district":"MUZAFFARPUR","state":"BIHAR","ELEVATION":0,"Lat":26.161399841308594,"Long":84.94830322265625},"geometry":{"x":4485354.5155000016,"y":4243350.5124000013}},{"attributes":{"FID":187,"Rotation":0,"Scale":0,"name_of_to":"HARDI","district":"MUZAFFARPUR","state":"BIHAR","ELEVATION":0,"Lat":26.162599563598633,"Long":85.115798950195312},"geometry":{"x":4501764.7094999999,"y":4244060.4697999991}},{"attributes":{"FID":188,"Rotation":0,"Scale":0,"name_of_to":"MASRAKH","district":"SARAN","state":"BIHAR","ELEVATION":0,"Lat":26.104099273681641,"Long":84.79840087890625},"geometry":{"x":4470864.3254999965,"y":4236610.4792000018}},{"attributes":{"FID":189,"Rotation":0,"Scale":0,"name_of_to":"BISHUNPURA","district":"SARAN","state":"BIHAR","ELEVATION":0,"Lat":26.022699356079102,"Long":84.796699523925781},"geometry":{"x":4471004.3002000004,"y":4227760.3784000017}},{"attributes":{"FID":190,"Rotation":0,"Scale":0,"name_of_to":"JAMO","district":"SIWAN","state":"BIHAR","ELEVATION":0,"Lat":26.304599761962891,"Long":84.55670166015625},"geometry":{"x":4446454.1137999967,"y":4257610.7936999984}},{"attributes":{"FID":191,"Rotation":0,"Scale":0,"name_of_to":"BARHARIA","district":"SIWAN","state":"BIHAR","ELEVATION":0,"Lat":26.318700790405273,"Long":84.449798583984375},"geometry":{"x":4435933.9948000014,"y":4258810.8454999998}},{"attributes":{"FID":192,"Rotation":0,"Scale":0,"name_of_to":"MUSTAFABAD","district":"SIWAN","state":"BIHAR","ELEVATION":0,"Lat":26.226800918579102,"Long":84.568801879882812},"geometry":{"x":4447914.1070000008,"y":4249190.6926000006}},{"attributes":{"FID":193,"Rotation":0,"Scale":0,"name_of_to":"SISAI","district":"SIWAN","state":"BIHAR","ELEVATION":0,"Lat":26.183599472045898,"Long":84.552597045898438},"geometry":{"x":4446474.0693999976,"y":4244450.6449000016}},{"attributes":{"FID":194,"Rotation":0,"Scale":0,"name_of_to":"GOREAKOTHI","district":"SIWAN","state":"BIHAR","ELEVATION":0,"Lat":26.258399963378906,"Long":84.599296569824219},"geometry":{"x":4450784.1444000006,"y":4252720.7307000011}},{"attributes":{"FID":195,"Rotation":0,"Scale":0,"name_of_to":"BASANTPUR","district":"SIWAN","state":"BIHAR","ELEVATION":0,"Lat":26.166400909423828,"Long":84.663299560546875},"geometry":{"x":4457384.1889000013,"y":4242940.5943999998}},{"attributes":{"FID":196,"Rotation":0,"Scale":0,"name_of_to":"MIRGANJ","district":"GOPALGANJ","state":"BIHAR","ELEVATION":0,"Lat":26.375699996948242,"Long":84.326301574707031},"geometry":{"x":4423643.873999998,"y":4264620.9459999986}},{"attributes":{"FID":197,"Rotation":0,"Scale":0,"name_of_to":"HASANPURA","district":"SIWAN","state":"BIHAR","ELEVATION":0,"Lat":26.071699142456055,"Long":84.371597290039062},"geometry":{"x":4429103.8330999985,"y":4231730.5571999997}},{"attributes":{"FID":198,"Rotation":0,"Scale":0,"name_of_to":"RAGHUNATHPUR","district":"SIWAN","state":"BIHAR","ELEVATION":0,"Lat":26.005199432373047,"Long":84.27490234375},"geometry":{"x":4419833.7016000003,"y":4224210.4989}},{"attributes":{"FID":199,"Rotation":0,"Scale":0,"name_of_to":"GANGAPUR SISWAN","district":"SIWAN","state":"BIHAR","ELEVATION":0,"Lat":25.951299667358398,"Long":84.382896423339844},"geometry":{"x":4430623.8093999997,"y":4218680.3993000016}},{"attributes":{"FID":200,"Rotation":0,"Scale":0,"name_of_to":"CHAINPUR","district":"SIWAN","state":"BIHAR","ELEVATION":0,"Lat":25.990900039672852,"Long":84.415901184082031},"geometry":{"x":4433733.8619000018,"y":4223090.439100001}},{"attributes":{"FID":201,"Rotation":0,"Scale":0,"name_of_to":"TAJPUR","district":"SARAN","state":"BIHAR","ELEVATION":0,"Lat":25.895599365234375,"Long":84.503898620605469},"geometry":{"x":4442703.9261000007,"y":4213010.3002999984}},{"attributes":{"FID":202,"Rotation":0,"Scale":0,"name_of_to":"EKMA","district":"SARAN","state":"BIHAR","ELEVATION":0,"Lat":25.965499877929688,"Long":84.539901733398438},"geometry":{"x":4445993.9941999987,"y":4220710.375}},{"attributes":{"FID":203,"Rotation":0,"Scale":0,"name_of_to":"TAJPUR","district":"SARAN","state":"BIHAR","ELEVATION":0,"Lat":26.034500122070312,"Long":84.620597839355469},"geometry":{"x":4453674.1072999984,"y":4228470.4426999986}},{"attributes":{"FID":204,"Rotation":0,"Scale":0,"name_of_to":"BANIAPUR","district":"SARAN","state":"BIHAR","ELEVATION":0,"Lat":25.992500305175781,"Long":84.69110107421875},"geometry":{"x":4460744.1736999974,"y":4224130.3630000018}},{"attributes":{"FID":205,"Rotation":0,"Scale":0,"name_of_to":"NAGRA","district":"SARAN","state":"BIHAR","ELEVATION":0,"Lat":25.891300201416016,"Long":84.754302978515625},"geometry":{"x":4467324.2092999965,"y":4213350.2168000005}},{"attributes":{"FID":206,"Rotation":0,"Scale":0,"name_of_to":"KHAIRA","district":"SARAN","state":"BIHAR","ELEVATION":0,"Lat":25.86039924621582,"Long":84.750198364257812},"geometry":{"x":4467034.1982000023,"y":4209980.1865000017}},{"attributes":{"FID":207,"Rotation":0,"Scale":0,"name_of_to":"RAVELGANJ","district":"SARAN","state":"BIHAR","ELEVATION":0,"Lat":25.780000686645508,"Long":84.6676025390625},"geometry":{"x":4459204.0749000013,"y":4200970.1039000005}},{"attributes":{"FID":208,"Rotation":0,"Scale":0,"name_of_to":"MANJHI","district":"CHHAPRA","state":"BIHAR","ELEVATION":0,"Lat":25.836799621582031,"Long":84.579902648925781},"geometry":{"x":4450373.9997000024,"y":4206860.1997000016}},{"attributes":{"FID":209,"Rotation":0,"Scale":0,"name_of_to":"DON","district":"SIWAN","state":"BIHAR","ELEVATION":0,"Lat":26.153499603271484,"Long":84.151199340820312},"geometry":{"x":4407213.6116999984,"y":4239960.7157999985}},{"attributes":{"FID":210,"Rotation":0,"Scale":0,"name_of_to":"DARAULI","district":"SIWAN","state":"BIHAR","ELEVATION":0,"Lat":26.07859992980957,"Long":84.137298583984375},"geometry":{"x":4406093.5706999972,"y":4231780.6275000013}},{"attributes":{"FID":211,"Rotation":0,"Scale":0,"name_of_to":"KABIRPUR","district":"SIWAN","state":"BIHAR","ELEVATION":0,"Lat":26.258899688720703,"Long":84.204696655273438},"geometry":{"x":4412123.7022999972,"y":4251570.8379999995}},{"attributes":{"FID":212,"Rotation":0,"Scale":0,"name_of_to":"SAHIBGANJ","district":"MUZAFFARPUR","state":"BIHAR","ELEVATION":0,"Lat":26.314699172973633,"Long":84.926498413085938},"geometry":{"x":4482634.5377999991,"y":4259930.7153000012}},{"attributes":{"FID":213,"Rotation":0,"Scale":0,"name_of_to":"KESARIYA","district":"PURBI CHAMPARAN","state":"BIHAR","ELEVATION":0,"Lat":26.357700347900391,"Long":84.866203308105469},"geometry":{"x":4476564.4798000008,"y":4264390.7809000015}},{"attributes":{"FID":214,"Rotation":0,"Scale":0,"name_of_to":"RAJPUR","district":"PURBI CHAMPARAN","state":"BIHAR","ELEVATION":0,"Lat":26.384599685668945,"Long":84.892799377441406},"geometry":{"x":4479064.5196999982,"y":4267410.8136}},{"attributes":{"FID":215,"Rotation":0,"Scale":0,"name_of_to":"BARURAJ","district":"MUZAFFARPUR","state":"BIHAR","ELEVATION":0,"Lat":26.24530029296875,"Long":85.114898681640625},"geometry":{"x":4501354.7312999964,"y":4253050.5751000009}},{"attributes":{"FID":216,"Rotation":0,"Scale":0,"name_of_to":"DARAUNDHA","district":"SIWAN","state":"BIHAR","ELEVATION":0,"Lat":26.08289909362793,"Long":84.449600219726562},"geometry":{"x":4436723.9265000001,"y":4233180.5498000011}},{"attributes":{"FID":217,"Rotation":0,"Scale":0,"name_of_to":"MINAPUR","district":"MUZAFFARPUR","state":"BIHAR","ELEVATION":0,"Lat":26.278499603271484,"Long":85.340896606445312},"geometry":{"x":4523355.0024000034,"y":4257470.5606000014}},{"attributes":{"FID":218,"Rotation":0,"Scale":0,"name_of_to":"BHADAI","district":"MUZAFFARPUR","state":"BIHAR","ELEVATION":0,"Lat":26.3031005859375,"Long":85.477302551269531},"geometry":{"x":4536615.1645999998,"y":4260660.5549999997}},{"attributes":{"FID":219,"Rotation":0,"Scale":0,"name_of_to":"HALIMPUR","district":"MUZAFFARPUR","state":"BIHAR","ELEVATION":0,"Lat":26.315399169921875,"Long":85.565597534179688},"geometry":{"x":4545205.2707000002,"y":4262330.5449000001}},{"attributes":{"FID":220,"Rotation":0,"Scale":0,"name_of_to":"KATRA","district":"MUZAFFARPUR","state":"BIHAR","ELEVATION":0,"Lat":26.21619987487793,"Long":85.631500244140625},"geometry":{"x":4552085.3215000033,"y":4251810.4050000012}},{"attributes":{"FID":221,"Rotation":0,"Scale":0,"name_of_to":"SIMRI","district":"DARBHANGA","state":"BIHAR","ELEVATION":0,"Lat":26.165000915527344,"Long":85.759696960449219},"geometry":{"x":4564875.4544999972,"y":4246760.3062000014}},{"attributes":{"FID":222,"Rotation":0,"Scale":0,"name_of_to":"MANIGAOHR","district":"DARBHANGA","state":"BIHAR","ELEVATION":0,"Lat":26.203800201416016,"Long":86.167396545410156},"geometry":{"x":4604655.9457999989,"y":4252670.25}},{"attributes":{"FID":223,"Rotation":0,"Scale":0,"name_of_to":"SARSO","district":"MADHUBANI","state":"BIHAR","ELEVATION":0,"Lat":26.239799499511719,"Long":86.176902770996094},"geometry":{"x":4605415.9715000018,"y":4256620.2972999997}},{"attributes":{"FID":224,"Rotation":0,"Scale":0,"name_of_to":"KOTHIA","district":"MADHUBANI","state":"BIHAR","ELEVATION":0,"Lat":26.280399322509766,"Long":86.239402770996094},"geometry":{"x":4611336.0544999987,"y":4261300.3352000006}},{"attributes":{"FID":225,"Rotation":0,"Scale":0,"name_of_to":"PANDAUL","district":"MADHUBANI","state":"BIHAR","ELEVATION":0,"Lat":26.257999420166016,"Long":86.078300476074219},"geometry":{"x":4595665.8559999987,"y":4258170.3456999995}},{"attributes":{"FID":226,"Rotation":0,"Scale":0,"name_of_to":"SAKRI","district":"MADHUBANI","state":"BIHAR","ELEVATION":0,"Lat":26.218599319458008,"Long":86.084503173828125},"geometry":{"x":4596465.8586999997,"y":4253920.2908999994}},{"attributes":{"FID":227,"Rotation":0,"Scale":0,"name_of_to":"KURSON","district":"DARBHANGA","state":"BIHAR","ELEVATION":0,"Lat":26.129600524902344,"Long":86.290702819824219},"geometry":{"x":4617096.0744000003,"y":4245140.1248000003}},{"attributes":{"FID":228,"Rotation":0,"Scale":0,"name_of_to":"CHOGARDIHA","district":"MADHUBANI","state":"BIHAR","ELEVATION":0,"Lat":26.275299072265625,"Long":86.470298767089844},"geometry":{"x":4633976.3291999996,"y":4261760.2696000002}},{"attributes":{"FID":229,"Rotation":0,"Scale":0,"name_of_to":"TAMORIA","district":"MADHUBANI","state":"BIHAR","ELEVATION":0,"Lat":26.258899688720703,"Long":86.356597900390625},"geometry":{"x":4622916.186300002,"y":4259480.2778999992}},{"attributes":{"FID":230,"Rotation":0,"Scale":0,"name_of_to":"SUPAUL","district":"SUPAUL","state":"BIHAR","ELEVATION":0,"Lat":26.246599197387695,"Long":86.642196655273438},"geometry":{"x":4650946.5258999988,"y":4259430.1887000017}},{"attributes":{"FID":231,"Rotation":0,"Scale":0,"name_of_to":"THARBITIA","district":"SUPAUL","state":"BIHAR","ELEVATION":0,"Lat":26.214399337768555,"Long":86.674697875976562},"geometry":{"x":4654296.5601999983,"y":4256080.1422000006}},{"attributes":{"FID":232,"Rotation":0,"Scale":0,"name_of_to":"GANPATGANJ","district":"SUPAUL","state":"BIHAR","ELEVATION":0,"Lat":26.277000427246094,"Long":86.822700500488281},"geometry":{"x":4668466.7524999976,"y":4263580.1884999983}},{"attributes":{"FID":233,"Rotation":0,"Scale":0,"name_of_to":"TRIBENIGANJ","district":"SUPAUL","state":"BIHAR","ELEVATION":0,"Lat":26.154899597167969,"Long":86.802803039550781},"geometry":{"x":4667156.6972000003,"y":4250230.0342999995}},{"attributes":{"FID":234,"Rotation":0,"Scale":0,"name_of_to":"KAMALPUR","district":"ARARIA","state":"BIHAR","ELEVATION":0,"Lat":26.086700439453125,"Long":87.295997619628906},"geometry":{"x":4715867.2813000008,"y":4245239.8233999982}},{"attributes":{"FID":235,"Rotation":0,"Scale":0,"name_of_to":"RANIGANJ","district":"ARARIA","state":"BIHAR","ELEVATION":0,"Lat":26.085300445556641,"Long":87.226600646972656},"geometry":{"x":4709077.1911000013,"y":4244739.8390999995}},{"attributes":{"FID":236,"Rotation":0,"Scale":0,"name_of_to":"KUSIARGAON","district":"ARARIA","state":"BIHAR","ELEVATION":0,"Lat":26.039499282836914,"Long":87.47039794921875},"geometry":{"x":4733237.4814999998,"y":4241019.7155000009}},{"attributes":{"FID":237,"Rotation":0,"Scale":0,"name_of_to":"MALHARIA","district":"ARARIA","state":"BIHAR","ELEVATION":0,"Lat":26.033000946044922,"Long":87.523002624511719},"geometry":{"x":4738437.5480000004,"y":4240579.693599999}},{"attributes":{"FID":238,"Rotation":0,"Scale":0,"name_of_to":"UDA","district":"ARARIA","state":"BIHAR","ELEVATION":0,"Lat":26.085899353027344,"Long":87.568603515625},"geometry":{"x":4742597.6140000001,"y":4246569.7545999996}},{"attributes":{"FID":239,"Rotation":0,"Scale":0,"name_of_to":"BAKHRI","district":"BEGUSARAI","state":"BIHAR","ELEVATION":0,"Lat":25.57819938659668,"Long":86.255302429199219},"geometry":{"x":4616285.8731999993,"y":4185119.4035999998}},{"attributes":{"FID":240,"Rotation":0,"Scale":0,"name_of_to":"CHERIA BARIARPUR","district":"BEGUSARAI","state":"BIHAR","ELEVATION":0,"Lat":25.585800170898438,"Long":86.088203430175781},"geometry":{"x":4599795.679399997,"y":4185219.4589000009}},{"attributes":{"FID":241,"Rotation":0,"Scale":0,"name_of_to":"PANDARAKH","district":"PATNA","state":"BIHAR","ELEVATION":0,"Lat":25.491600036621094,"Long":85.79620361328125},"geometry":{"x":4571465.303199999,"y":4173779.4107999988}},{"attributes":{"FID":242,"Rotation":0,"Scale":0,"name_of_to":"BAZIDPUR","district":"SAMASTIPUR","state":"BIHAR","ELEVATION":0,"Lat":25.590400695800781,"Long":85.777999877929688},"geometry":{"x":4569235.3104000017,"y":4184439.5491999984}},{"attributes":{"FID":243,"Rotation":0,"Scale":0,"name_of_to":"MOHIUDDINNAGAR","district":"SAMASTIPUR","state":"BIHAR","ELEVATION":0,"Lat":25.578100204467773,"Long":85.661903381347656},"geometry":{"x":4557855.1709000021,"y":4182639.561900001}},{"attributes":{"FID":244,"Rotation":0,"Scale":0,"name_of_to":"MOR","district":"PATNA","state":"BIHAR","ELEVATION":0,"Lat":25.446300506591797,"Long":85.850303649902344},"geometry":{"x":4577005.3489999995,"y":4169089.3343000002}},{"attributes":{"FID":245,"Rotation":0,"Scale":0,"name_of_to":"FATEHPUR SAHBAZ","district":"VAISHALI","state":"BIHAR","ELEVATION":0,"Lat":25.559799194335938,"Long":85.341400146484375},"geometry":{"x":4526364.7903999984,"y":4179409.6294}},{"attributes":{"FID":246,"Rotation":0,"Scale":0,"name_of_to":"MANER","district":"PATNA","state":"BIHAR","ELEVATION":0,"Lat":25.640399932861328,"Long":84.883697509765625},"geometry":{"x":4480974.2809000015,"y":4186529.8669999987}},{"attributes":{"FID":247,"Rotation":0,"Scale":0,"name_of_to":"LAI","district":"PATNA","state":"BIHAR","ELEVATION":0,"Lat":25.511699676513672,"Long":84.810302734375},"geometry":{"x":4474234.1546000019,"y":4172309.7228999995}},{"attributes":{"FID":248,"Rotation":0,"Scale":0,"name_of_to":"BIHTA","district":"PATNA","state":"BIHAR","ELEVATION":0,"Lat":25.54010009765625,"Long":84.861900329589844},"geometry":{"x":4479204.2276000008,"y":4175569.7423}},{"attributes":{"FID":249,"Rotation":0,"Scale":0,"name_of_to":"KULHARIA","district":"BHOJPUR","state":"BIHAR","ELEVATION":0,"Lat":25.581699371337891,"Long":84.793998718261719},"geometry":{"x":4472364.1622999981,"y":4179849.8154999986}},{"attributes":{"FID":250,"Rotation":0,"Scale":0,"name_of_to":"NAUBATPUR","district":"PATNA","state":"BIHAR","ELEVATION":0,"Lat":25.492099761962891,"Long":84.955703735351562},"geometry":{"x":4488634.3200000003,"y":4170669.6578000002}},{"attributes":{"FID":251,"Rotation":0,"Scale":0,"name_of_to":"NECRA","district":"PATNA","state":"BIHAR","ELEVATION":0,"Lat":25.559000015258789,"Long":84.9761962890625},"geometry":{"x":4490394.3672000021,"y":4178009.7368000001}},{"attributes":{"FID":252,"Rotation":0,"Scale":0,"name_of_to":"JAITIPUR","district":"PATNA","state":"BIHAR","ELEVATION":0,"Lat":25.447900772094727,"Long":84.939598083496094},"geometry":{"x":4487214.2858999968,"y":4165819.6061999984}},{"attributes":{"FID":253,"Rotation":0,"Scale":0,"name_of_to":"KEORA","district":"PATNA","state":"BIHAR","ELEVATION":0,"Lat":25.431499481201172,"Long":85.07440185546875},"geometry":{"x":4500574.4337000027,"y":4164509.5383000001}},{"attributes":{"FID":254,"Rotation":0,"Scale":0,"name_of_to":"BAR","district":"PATNA","state":"BIHAR","ELEVATION":0,"Lat":25.410100936889648,"Long":85.175697326660156},"geometry":{"x":4510644.5442000031,"y":4162549.4877999984}},{"attributes":{"FID":255,"Rotation":0,"Scale":0,"name_of_to":"DHANIAWAN","district":"PATNA","state":"BIHAR","ELEVATION":0,"Lat":25.43280029296875,"Long":85.3135986328125},"geometry":{"x":4524144.7185999975,"y":4165519.4701999985}},{"attributes":{"FID":256,"Rotation":0,"Scale":0,"name_of_to":"KHUSROPUR","district":"PATNA","state":"BIHAR","ELEVATION":0,"Lat":25.46190071105957,"Long":85.397903442382812},"geometry":{"x":4532344.8219000027,"y":4168999.4862000011}},{"attributes":{"FID":257,"Rotation":0,"Scale":0,"name_of_to":"ATHMALGOLA","district":"PATNA","state":"BIHAR","ELEVATION":0,"Lat":25.453300476074219,"Long":85.611198425292969},"geometry":{"x":4553405.0715000033,"y":4168889.4118000008}},{"attributes":{"FID":258,"Rotation":0,"Scale":0,"name_of_to":"SEMARIYA","district":"BHOJPUR","state":"BIHAR","ELEVATION":0,"Lat":25.669200897216797,"Long":84.72760009765625},"geometry":{"x":4465504.1085999981,"y":4189129.9419}},{"attributes":{"FID":259,"Rotation":0,"Scale":0,"name_of_to":"GHAZIPUR","district":"BHOJPUR","state":"BIHAR","ELEVATION":0,"Lat":25.684299468994141,"Long":84.63079833984375},"geometry":{"x":4455924.007600002,"y":4190459.9930999987}},{"attributes":{"FID":260,"Rotation":0,"Scale":0,"name_of_to":"BENWALIYA","district":"BHOJPUR","state":"BIHAR","ELEVATION":0,"Lat":25.625200271606445,"Long":84.516799926757812},"geometry":{"x":4444913.8596000001,"y":4183669.9549000002}},{"attributes":{"FID":261,"Rotation":0,"Scale":0,"name_of_to":"KARJA","district":"BHOJPUR","state":"BIHAR","ELEVATION":0,"Lat":25.63599967956543,"Long":84.47039794921875},"geometry":{"x":4440303.8113999963,"y":4184699.9787000008}},{"attributes":{"FID":262,"Rotation":0,"Scale":0,"name_of_to":"MAHUAR","district":"BHOJPUR","state":"BIHAR","ELEVATION":0,"Lat":25.670600891113281,"Long":84.339599609375},"geometry":{"x":4427313.6687999964,"y":4188060.058699999}},{"attributes":{"FID":263,"Rotation":0,"Scale":0,"name_of_to":"SHAHPUR","district":"BHOJPUR","state":"BIHAR","ELEVATION":0,"Lat":25.592500686645508,"Long":84.394096374511719},"geometry":{"x":4432933.7039000019,"y":4179739.9442999996}},{"attributes":{"FID":264,"Rotation":0,"Scale":0,"name_of_to":"BARHAMPUR","district":"BUXAR","state":"BIHAR","ELEVATION":0,"Lat":25.589500427246094,"Long":84.303802490234375},"geometry":{"x":4424053.6035000011,"y":4179139.9688000008}},{"attributes":{"FID":265,"Rotation":0,"Scale":0,"name_of_to":"RAGHUNATHPUR","district":"BHOJPUR","state":"BIHAR","ELEVATION":0,"Lat":25.5447998046875,"Long":84.306900024414062},"geometry":{"x":4424503.5952000022,"y":4174289.9118000008}},{"attributes":{"FID":266,"Rotation":0,"Scale":0,"name_of_to":"JAGDISHPUR","district":"BHOJPUR","state":"BIHAR","ELEVATION":0,"Lat":25.466499328613281,"Long":84.413002014160156},"geometry":{"x":4435233.686499998,"y":4166119.7853000015}},{"attributes":{"FID":267,"Rotation":0,"Scale":0,"name_of_to":"DALIPPUR","district":"BHOJPUR","state":"BIHAR","ELEVATION":0,"Lat":25.415500640869141,"Long":84.383903503417969},"geometry":{"x":4432533.6350999996,"y":4160489.7287000008}},{"attributes":{"FID":268,"Rotation":0,"Scale":0,"name_of_to":"GARHANI","district":"BHOJPUR","state":"BIHAR","ELEVATION":0,"Lat":25.403799057006836,"Long":84.5469970703125},"geometry":{"x":4448663.8162999973,"y":4159729.6601999998}},{"attributes":{"FID":269,"Rotation":0,"Scale":0,"name_of_to":"KASAP","district":"BHOJPUR","state":"BIHAR","ELEVATION":0,"Lat":25.456600189208984,"Long":84.616096496582031},"geometry":{"x":4455283.9170999974,"y":4165679.7115999982}},{"attributes":{"FID":270,"Rotation":0,"Scale":0,"name_of_to":"DAUDPUR","district":"SARAN","state":"BIHAR","ELEVATION":0,"Lat":25.903499603271484,"Long":84.5968017578125},"geometry":{"x":4451804.0354999974,"y":4214160.2769000009}},{"attributes":{"FID":271,"Rotation":0,"Scale":0,"name_of_to":"MURAR","district":"BUXAR","state":"BIHAR","ELEVATION":0,"Lat":25.474599838256836,"Long":84.236503601074219},"geometry":{"x":4417803.4930000007,"y":4166459.8493000008}},{"attributes":{"FID":272,"Rotation":0,"Scale":0,"name_of_to":"NEAZIPUR","district":"BUXAR","state":"BIHAR","ELEVATION":0,"Lat":25.662399291992188,"Long":84.157096862792969},"geometry":{"x":4409373.4628999978,"y":4186630.1066999994}},{"attributes":{"FID":273,"Rotation":0,"Scale":0,"name_of_to":"BHOJPUR","district":"BUXAR","state":"BIHAR","ELEVATION":0,"Lat":25.57550048828125,"Long":84.138198852539062},"geometry":{"x":4407783.4113000035,"y":4177130.0034000017}},{"attributes":{"FID":274,"Rotation":0,"Scale":0,"name_of_to":"PARSAHARA","district":"BUXAR","state":"BIHAR","ELEVATION":0,"Lat":25.492599487304688,"Long":84.082901000976562},"geometry":{"x":4402603.3232000023,"y":4167969.9169000015}},{"attributes":{"FID":275,"Rotation":0,"Scale":0,"name_of_to":"CHAUSA","district":"BUXAR","state":"BIHAR","ELEVATION":0,"Lat":25.512100219726562,"Long":83.888999938964844},"geometry":{"x":4383423.1080000028,"y":4169539.9968999997}},{"attributes":{"FID":276,"Rotation":0,"Scale":0,"name_of_to":"RAJPUR","district":"BUXAR","state":"BIHAR","ELEVATION":0,"Lat":25.392799377441406,"Long":83.898101806640625},"geometry":{"x":4384683.0813999996,"y":4156609.8469000012}},{"attributes":{"FID":277,"Rotation":0,"Scale":0,"name_of_to":"SIKRAUR","district":"BUXAR","state":"BIHAR","ELEVATION":0,"Lat":25.401300430297852,"Long":84.128997802734375},"geometry":{"x":4407433.3396999985,"y":4158179.7833999991}},{"attributes":{"FID":278,"Rotation":0,"Scale":0,"name_of_to":"NAWANAGAR","district":"BUXAR","state":"BIHAR","ELEVATION":0,"Lat":25.382900238037109,"Long":84.206802368164062},"geometry":{"x":4415173.4280999973,"y":4156409.7402999997}},{"attributes":{"FID":279,"Rotation":0,"Scale":0,"name_of_to":"KURAN SARAI","district":"BUXAR","state":"BIHAR","ELEVATION":0,"Lat":25.470600128173828,"Long":84.180496215820312},"geometry":{"x":4412293.4235000014,"y":4165859.8546000011}},{"attributes":{"FID":280,"Rotation":0,"Scale":0,"name_of_to":"AGIAON","district":"BHOJPUR","state":"BIHAR","ELEVATION":0,"Lat":25.365299224853516,"Long":84.614402770996094},"geometry":{"x":4455443.8830000013,"y":4155759.5923000015}},{"attributes":{"FID":281,"Rotation":0,"Scale":0,"name_of_to":"BHAGWANPUR","district":"BHABHUA","state":"BIHAR","ELEVATION":0,"Lat":24.948699951171875,"Long":83.606796264648438},"geometry":{"x":4357172.5935999975,"y":4107609.3911000006}},{"attributes":{"FID":282,"Rotation":0,"Scale":0,"name_of_to":"RAMGARH","district":"BHABHUA","state":"BIHAR","ELEVATION":0,"Lat":25.28700065612793,"Long":83.659599304199219},"geometry":{"x":4361452.7722999975,"y":4144489.7914999984}},{"attributes":{"FID":283,"Rotation":0,"Scale":0,"name_of_to":"CHAND","district":"BHABHUA","state":"BIHAR","ELEVATION":0,"Lat":25.122200012207031,"Long":83.388496398925781},"geometry":{"x":4335112.4121999964,"y":4125919.6722999997}},{"attributes":{"FID":284,"Rotation":0,"Scale":0,"name_of_to":"JAHANABAD","district":"BHABHUA","state":"BIHAR","ELEVATION":0,"Lat":25.044000625610352,"Long":83.788299560546875},"geometry":{"x":4374872.8352999985,"y":4118439.4464999996}},{"attributes":{"FID":285,"Rotation":0,"Scale":0,"name_of_to":"NOAWAN","district":"BHABHUA","state":"BIHAR","ELEVATION":0,"Lat":25.36870002746582,"Long":83.733802795410156},"geometry":{"x":4368542.8874000013,"y":4153549.8691000007}},{"attributes":{"FID":286,"Rotation":0,"Scale":0,"name_of_to":"KOCHAS","district":"ROHTAS","state":"BIHAR","ELEVATION":0,"Lat":25.23390007019043,"Long":83.908203125},"geometry":{"x":4386163.0379000008,"y":4139379.6416999996}},{"attributes":{"FID":287,"Rotation":0,"Scale":0,"name_of_to":"KARGHAR","district":"ROHTAS","state":"BIHAR","ELEVATION":0,"Lat":25.135299682617188,"Long":83.916999816894531},"geometry":{"x":4387323.0090999976,"y":4128699.5238999985}},{"attributes":{"FID":288,"Rotation":0,"Scale":0,"name_of_to":"BARAHRI","district":"ROHTAS","state":"BIHAR","ELEVATION":0,"Lat":25.150600433349609,"Long":84.01519775390625},"geometry":{"x":4396983.1317000017,"y":4130629.5062000006}},{"attributes":{"FID":289,"Rotation":0,"Scale":0,"name_of_to":"RAJPUR","district":"ROHTAS","state":"BIHAR","ELEVATION":0,"Lat":25.068399429321289,"Long":84.215599060058594},"geometry":{"x":4417063.3236000016,"y":4122289.3434999995}},{"attributes":{"FID":290,"Rotation":0,"Scale":0,"name_of_to":"NASRIGANJ","district":"ROHTAS","state":"BIHAR","ELEVATION":0,"Lat":25.055299758911133,"Long":84.336097717285156},"geometry":{"x":4429023.4569000006,"y":4121219.2908999994}},{"attributes":{"FID":291,"Rotation":0,"Scale":0,"name_of_to":"KOATH","district":"ROHTAS","state":"BIHAR","ELEVATION":0,"Lat":25.321199417114258,"Long":84.265998840332031},"geometry":{"x":4421213.4689000025,"y":4149889.6402000003}},{"attributes":{"FID":292,"Rotation":0,"Scale":0,"name_of_to":"BABHNOUL","district":"ROHTAS","state":"BIHAR","ELEVATION":0,"Lat":25.320600509643555,"Long":84.217300415039062},"geometry":{"x":4416413.4174999967,"y":4149679.6607000008}},{"attributes":{"FID":293,"Rotation":0,"Scale":0,"name_of_to":"EKWARI","district":"BHOJPUR","state":"BIHAR","ELEVATION":0,"Lat":25.299299240112305,"Long":84.585296630859375},"geometry":{"x":4452803.8246000037,"y":4148499.5212000012}},{"attributes":{"FID":294,"Rotation":0,"Scale":0,"name_of_to":"SAHAR","district":"BHOJPUR","state":"BIHAR","ELEVATION":0,"Lat":25.247499465942383,"Long":84.610099792480469},"geometry":{"x":4455443.8390000015,"y":4142959.4442000017}},{"attributes":{"FID":295,"Rotation":0,"Scale":0,"name_of_to":"HANSPUR","district":"AURANGABAD","state":"BIHAR","ELEVATION":0,"Lat":25.06879997253418,"Long":84.548896789550781},"geometry":{"x":4450023.7088999972,"y":4123349.2349999994}},{"attributes":{"FID":296,"Rotation":0,"Scale":0,"name_of_to":"USRI","district":"JAHANABAD","state":"BIHAR","ELEVATION":0,"Lat":25.125900268554688,"Long":84.592697143554688},"geometry":{"x":4454153.7754999995,"y":4129699.2980999984}},{"attributes":{"FID":297,"Rotation":0,"Scale":0,"name_of_to":"KARPI","district":"JAHANABAD","state":"BIHAR","ELEVATION":0,"Lat":25.162399291992188,"Long":84.715202331542969},"geometry":{"x":4466123.9316999987,"y":4134059.3022000007}},{"attributes":{"FID":298,"Rotation":0,"Scale":0,"name_of_to":"KURTHA","district":"JAHANABAD","state":"BIHAR","ELEVATION":0,"Lat":25.119800567626953,"Long":84.814002990722656},"geometry":{"x":4476054.0297999978,"y":4129759.2203000002}},{"attributes":{"FID":299,"Rotation":0,"Scale":0,"name_of_to":"KINJAR","district":"JAHANABAD","state":"BIHAR","ELEVATION":0,"Lat":25.219400405883789,"Long":84.832603454589844},"geometry":{"x":4477514.0873999968,"y":4140639.3418000005}},{"attributes":{"FID":300,"Rotation":0,"Scale":0,"name_of_to":"PALIGANJ","district":"PATNA","state":"BIHAR","ELEVATION":0,"Lat":25.323400497436523,"Long":84.819900512695312},"geometry":{"x":4475874.1098000035,"y":4151889.4781999998}},{"attributes":{"FID":301,"Rotation":0,"Scale":0,"name_of_to":"SANDES","district":"BHOJPUR","state":"BIHAR","ELEVATION":0,"Lat":25.392099380493164,"Long":84.733901977539062},"geometry":{"x":4467134.0295000002,"y":4159059.5901999995}},{"attributes":{"FID":302,"Rotation":0,"Scale":0,"name_of_to":"SAJHAULI","district":"ROHTAS","state":"BIHAR","ELEVATION":0,"Lat":25.154300689697266,"Long":84.197601318359375},"geometry":{"x":4415003.3395999968,"y":4131559.4585999995}},{"attributes":{"FID":303,"Rotation":0,"Scale":0,"name_of_to":"MAU","district":"GAYA","state":"BIHAR","ELEVATION":0,"Lat":25.007699966430664,"Long":84.808502197265625},"geometry":{"x":4475923.9865999967,"y":4117569.0797999986}},{"attributes":{"FID":304,"Rotation":0,"Scale":0,"name_of_to":"HULASGANJ","district":"JAHANABAD","state":"BIHAR","ELEVATION":0,"Lat":25.077499389648438,"Long":85.151702880859375},"geometry":{"x":4509594.4139000028,"y":4126349.060899999}},{"attributes":{"FID":305,"Rotation":0,"Scale":0,"name_of_to":"TOHTA","district":"JAHANABAD","state":"BIHAR","ELEVATION":0,"Lat":25.109100341796875,"Long":84.990501403808594},"geometry":{"x":4493534.2303000018,"y":4129209.1499999985}},{"attributes":{"FID":306,"Rotation":0,"Scale":0,"name_of_to":"ISLAMPUR","district":"NALANDA","state":"BIHAR","ELEVATION":0,"Lat":25.131799697875977,"Long":85.20989990234375},"geometry":{"x":4515134.4956,"y":4132459.1165000014}},{"attributes":{"FID":307,"Rotation":0,"Scale":0,"name_of_to":"GHOSI","district":"JAHANABAD","state":"BIHAR","ELEVATION":0,"Lat":25.162500381469727,"Long":85.103401184082031},"geometry":{"x":4504484.3800999969,"y":4135409.184799999}},{"attributes":{"FID":308,"Rotation":0,"Scale":0,"name_of_to":"NADAUL","district":"PATNA","state":"BIHAR","ELEVATION":0,"Lat":25.303600311279297,"Long":85.033401489257812},"geometry":{"x":4497024.3496000022,"y":4150479.3902999982}},{"attributes":{"FID":309,"Rotation":0,"Scale":0,"name_of_to":"EKNAGAR SARAI","district":"NALANDA","state":"BIHAR","ELEVATION":0,"Lat":25.215299606323242,"Long":85.226699829101562},"geometry":{"x":4516454.5442999974,"y":4141589.2197000012}},{"attributes":{"FID":310,"Rotation":0,"Scale":0,"name_of_to":"KAKO","district":"JAHANABAD","state":"BIHAR","ELEVATION":0,"Lat":25.221200942993164,"Long":85.076301574707031},"geometry":{"x":4501584.3672000021,"y":4141679.2694999985}},{"attributes":{"FID":311,"Rotation":0,"Scale":0,"name_of_to":"PUNPUN","district":"PATNA","state":"BIHAR","ELEVATION":0,"Lat":25.481000900268555,"Long":85.115997314453125},"geometry":{"x":4504474.5041999966,"y":4170029.5969000012}},{"attributes":{"FID":312,"Rotation":0,"Scale":0,"name_of_to":"HILSA","district":"NALANDA","state":"BIHAR","ELEVATION":0,"Lat":25.307100296020508,"Long":85.294296264648438},"geometry":{"x":4522754.6534999982,"y":4151799.3189999983}},{"attributes":{"FID":313,"Rotation":0,"Scale":0,"name_of_to":"BNAGAN BIGHA","district":"NALANDA","state":"BIHAR","ELEVATION":0,"Lat":25.316999435424805,"Long":85.416397094726562},"geometry":{"x":4534764.7959999964,"y":4153329.2912000008}},{"attributes":{"FID":314,"Rotation":0,"Scale":0,"name_of_to":"BARAUNI","district":"BEGUSARAI","state":"BIHAR","ELEVATION":0,"Lat":25.480899810791016,"Long":85.975997924804688},"geometry":{"x":4589235.5097000003,"y":4173359.3506999984}},{"attributes":{"FID":315,"Rotation":0,"Scale":0,"name_of_to":"MOKAMA","district":"PATNA","state":"BIHAR","ELEVATION":0,"Lat":25.398799896240234,"Long":85.917999267578125},"geometry":{"x":4583895.4191000015,"y":4164209.2536999993}},{"attributes":{"FID":316,"Rotation":0,"Scale":0,"name_of_to":"SAKSOHARA","district":"PATNA","state":"BIHAR","ELEVATION":0,"Lat":25.367900848388672,"Long":85.706596374511719},"geometry":{"x":4563185.1600999981,"y":4159989.2793000005}},{"attributes":{"FID":317,"Rotation":0,"Scale":0,"name_of_to":"HARNAUT","district":"NALANDA","state":"BIHAR","ELEVATION":0,"Lat":25.362699508666992,"Long":85.531196594238281},"geometry":{"x":4545904.9514999986,"y":4158739.3222000003}},{"attributes":{"FID":318,"Rotation":0,"Scale":0,"name_of_to":"CHANDI","district":"NALANDA","state":"BIHAR","ELEVATION":0,"Lat":25.321399688720703,"Long":85.518096923828125},"geometry":{"x":4544784.9208000004,"y":4154199.2659000009}},{"attributes":{"FID":319,"Rotation":0,"Scale":0,"name_of_to":"NUR SARAI","district":"NALANDA","state":"BIHAR","ELEVATION":0,"Lat":25.267099380493164,"Long":85.4635009765625},"geometry":{"x":4539624.8376000002,"y":4148099.2186999992}},{"attributes":{"FID":320,"Rotation":0,"Scale":0,"name_of_to":"ASTHAWAN","district":"NALANDA","state":"BIHAR","ELEVATION":0,"Lat":25.213499069213867,"Long":85.633499145507812},"geometry":{"x":4556645.0231000036,"y":4142939.0973999985}},{"attributes":{"FID":321,"Rotation":0,"Scale":0,"name_of_to":"BAR BIGHA","district":"SHEIKHPURA","state":"BIHAR","ELEVATION":0,"Lat":25.214399337768555,"Long":85.730499267578125},"geometry":{"x":4566215.1389999986,"y":4143419.0720999986}},{"attributes":{"FID":322,"Rotation":0,"Scale":0,"name_of_to":"SARMERA","district":"NALANDA","state":"BIHAR","ELEVATION":0,"Lat":25.257999420166016,"Long":85.799201965332031},"geometry":{"x":4572805.2316000015,"y":4148429.1070999987}},{"attributes":{"FID":323,"Rotation":0,"Scale":0,"name_of_to":"HALSI","district":"LAKHISARAI","state":"BIHAR","ELEVATION":0,"Lat":25.031700134277344,"Long":86.047897338867188},"geometry":{"x":4598415.4580999985,"y":4124908.7342000008}},{"attributes":{"FID":324,"Rotation":0,"Scale":0,"name_of_to":"SILAO","district":"NALANDA","state":"BIHAR","ELEVATION":0,"Lat":25.081399917602539,"Long":85.4197998046875},"geometry":{"x":4536084.7246999964,"y":4127768.9860999994}},{"attributes":{"FID":325,"Rotation":0,"Scale":0,"name_of_to":"BARHIVA","district":"LAKHISARAI","state":"BIHAR","ELEVATION":0,"Lat":25.277900695800781,"Long":86.021499633789062},"geometry":{"x":4594655.5,"y":4151519.0670999996}},{"attributes":{"FID":326,"Rotation":0,"Scale":0,"name_of_to":"JAMALPUR","district":"MUNGER","state":"BIHAR","ELEVATION":0,"Lat":25.291200637817383,"Long":86.49859619140625},"geometry":{"x":4641676.0775000006,"y":4155048.947900001}},{"attributes":{"FID":327,"Rotation":0,"Scale":0,"name_of_to":"SITAKUND","district":"MUNGER","state":"BIHAR","ELEVATION":0,"Lat":25.361799240112305,"Long":86.527702331542969},"geometry":{"x":4644196.1410999969,"y":4162849.0390999988}},{"attributes":{"FID":328,"Rotation":0,"Scale":0,"name_of_to":"JAMALPUR","district":"KHAGARIA","state":"BIHAR","ELEVATION":0,"Lat":25.408100128173828,"Long":86.657699584960938},"geometry":{"x":4656776.3084999993,"y":4168469.064199999}},{"attributes":{"FID":329,"Rotation":0,"Scale":0,"name_of_to":"BARIARPUR","district":"MUNGER","state":"BIHAR","ELEVATION":0,"Lat":25.296199798583984,"Long":86.570198059082031},"geometry":{"x":4648716.1658999994,"y":4155918.9332000017}},{"attributes":{"FID":330,"Rotation":0,"Scale":0,"name_of_to":"SULTANGANJ","district":"BHAGALPUR","state":"BIHAR","ELEVATION":0,"Lat":25.23590087890625,"Long":86.760002136230469},"geometry":{"x":4667756.3808000013,"y":4150268.8013999984}},{"attributes":{"FID":331,"Rotation":0,"Scale":0,"name_of_to":"AKBARNAGAR","district":"BHAGALPUR","state":"BIHAR","ELEVATION":0,"Lat":25.235799789428711,"Long":86.794502258300781},"geometry":{"x":4671156.4223999977,"y":4150418.7952999994}},{"attributes":{"FID":332,"Rotation":0,"Scale":0,"name_of_to":"SHAHKUND","district":"BHAGALPUR","state":"BIHAR","ELEVATION":0,"Lat":25.150999069213867,"Long":86.807998657226562},"geometry":{"x":4672936.4116000012,"y":4141278.6739999987}},{"attributes":{"FID":333,"Rotation":0,"Scale":0,"name_of_to":"BIKHPUR","district":"BHAGALPUR","state":"BIHAR","ELEVATION":0,"Lat":25.377599716186523,"Long":86.854103088378906},"geometry":{"x":4676296.5430999994,"y":4166088.9640999995}},{"attributes":{"FID":334,"Rotation":0,"Scale":0,"name_of_to":"BIHPUR","district":"BHAGALPUR","state":"BIHAR","ELEVATION":0,"Lat":25.379800796508789,"Long":86.930099487304688},"geometry":{"x":4683776.6374000013,"y":4166698.9475000016}},{"attributes":{"FID":335,"Rotation":0,"Scale":0,"name_of_to":"KHUTIA","district":"KHAGARIA","state":"BIHAR","ELEVATION":0,"Lat":25.529899597167969,"Long":86.549400329589844},"geometry":{"x":4645486.2120999992,"y":4181189.2540000007}},{"attributes":{"FID":336,"Rotation":0,"Scale":0,"name_of_to":"TARAPUR","district":"MUNGER","state":"BIHAR","ELEVATION":0,"Lat":25.087600708007812,"Long":86.65679931640625},"geometry":{"x":4658326.2091000006,"y":4133688.6286999993}},{"attributes":{"FID":337,"Rotation":0,"Scale":0,"name_of_to":"SAMBHUGANJ","district":"BANKA","state":"BIHAR","ELEVATION":0,"Lat":25.075300216674805,"Long":86.728599548339844},"geometry":{"x":4665486.2893999964,"y":4132688.5940999985}},{"attributes":{"FID":338,"Rotation":0,"Scale":0,"name_of_to":"DHARHARA","district":"MUNGER","state":"BIHAR","ELEVATION":0,"Lat":25.229499816894531,"Long":86.383697509765625},"geometry":{"x":4630645.9239000008,"y":4147838.8975000009}},{"attributes":{"FID":339,"Rotation":0,"Scale":0,"name_of_to":"BHAWANIPUR","district":"KATIHAR","state":"BIHAR","ELEVATION":0,"Lat":25.399700164794922,"Long":87.508003234863281},"geometry":{"x":4740627.3563999981,"y":4171778.8275000006}},{"attributes":{"FID":340,"Rotation":0,"Scale":0,"name_of_to":"SONAHULA","district":"BHAGALPUR","state":"BIHAR","ELEVATION":0,"Lat":25.086000442504883,"Long":87.154098510742188},"geometry":{"x":4707476.8215000033,"y":4135918.4873000011}},{"attributes":{"FID":341,"Rotation":0,"Scale":0,"name_of_to":"ASARGANJ","district":"MUNGER","state":"BIHAR","ELEVATION":0,"Lat":25.147600173950195,"Long":86.677696228027344},"geometry":{"x":4660086.255400002,"y":4140298.7054999992}},{"attributes":{"FID":342,"Rotation":0,"Scale":0,"name_of_to":"PIRPAINTI","district":"BHAGALPUR","state":"BIHAR","ELEVATION":0,"Lat":25.319999694824219,"Long":87.413101196289062},"geometry":{"x":4731727.2129999995,"y":4162628.7373000011}},{"attributes":{"FID":343,"Rotation":0,"Scale":0,"name_of_to":"KURAITHA","district":"KATIHAR","state":"BIHAR","ELEVATION":0,"Lat":25.502899169921875,"Long":87.659400939941406},"geometry":{"x":4754937.5737999976,"y":4183778.9250999987}},{"attributes":{"FID":344,"Rotation":0,"Scale":0,"name_of_to":"BHITIA","district":"BANKA","state":"BIHAR","ELEVATION":0,"Lat":24.911800384521484,"Long":86.735397338867188},"geometry":{"x":4667006.2468999997,"y":4114978.373300001}},{"attributes":{"FID":345,"Rotation":0,"Scale":0,"name_of_to":"RATA","district":"BANKA","state":"BIHAR","ELEVATION":0,"Lat":24.981199264526367,"Long":86.731903076171875},"geometry":{"x":4666306.2665999979,"y":4122498.4701000005}},{"attributes":{"FID":346,"Rotation":0,"Scale":0,"name_of_to":"KATURIA","district":"BANKA","state":"BIHAR","ELEVATION":0,"Lat":24.742300033569336,"Long":86.713401794433594},"geometry":{"x":4665706.1682000011,"y":4096488.1515999995}},{"attributes":{"FID":347,"Rotation":0,"Scale":0,"name_of_to":"JAMDAHA","district":"BANKA","state":"BIHAR","ELEVATION":0,"Lat":24.759300231933594,"Long":86.901199340820312},"geometry":{"x":4684226.4033999965,"y":4099228.1130999997}},{"attributes":{"FID":348,"Rotation":0,"Scale":0,"name_of_to":"SUIABATHAN","district":"BANKA","state":"BIHAR","ELEVATION":0,"Lat":24.832799911499023,"Long":86.651397705078125},"geometry":{"x":4659106.1224000007,"y":4106008.2890000008}},{"attributes":{"FID":349,"Rotation":0,"Scale":0,"name_of_to":"BELHAR","district":"BANKA","state":"BIHAR","ELEVATION":0,"Lat":24.92449951171875,"Long":86.584098815917969},"geometry":{"x":4651976.0724999979,"y":4115648.4338999987}},{"attributes":{"FID":350,"Rotation":0,"Scale":0,"name_of_to":"DIGHI","district":"JAMUI","state":"BIHAR","ELEVATION":0,"Lat":24.931699752807617,"Long":86.424896240234375},"geometry":{"x":4636185.8747999966,"y":4115698.4862000011}},{"attributes":{"FID":351,"Rotation":0,"Scale":0,"name_of_to":"SONO","district":"JAMUI","state":"BIHAR","ELEVATION":0,"Lat":24.737699508666992,"Long":86.294097900390625},"geometry":{"x":4624185.6585000008,"y":4094068.2734000012}},{"attributes":{"FID":352,"Rotation":0,"Scale":0,"name_of_to":"JHAJHA","district":"JAMUI","state":"BIHAR","ELEVATION":0,"Lat":24.777599334716797,"Long":86.354202270507812},"geometry":{"x":4629945.7446999997,"y":4098668.3049000017}},{"attributes":{"FID":353,"Rotation":0,"Scale":0,"name_of_to":"PATSANDA","district":"JAMUI","state":"BIHAR","ELEVATION":0,"Lat":24.855899810791016,"Long":86.295097351074219},"geometry":{"x":4623705.6966999993,"y":4106898.4298}},{"attributes":{"FID":354,"Rotation":0,"Scale":0,"name_of_to":"KHAIRA","district":"JAMUI","state":"BIHAR","ELEVATION":0,"Lat":24.871400833129883,"Long":86.199302673339844},"geometry":{"x":4614145.5876000002,"y":4108158.4743000008}},{"attributes":{"FID":355,"Rotation":0,"Scale":0,"name_of_to":"BATIA","district":"JAMUI","state":"BIHAR","ELEVATION":0,"Lat":24.640800476074219,"Long":86.344497680664062},"geometry":{"x":4629645.6878999993,"y":4083778.1248000003}},{"attributes":{"FID":356,"Rotation":0,"Scale":0,"name_of_to":"BAMDAH","district":"JAMUI","state":"BIHAR","ELEVATION":0,"Lat":24.598100662231445,"Long":86.400398254394531},"geometry":{"x":4635405.7414999977,"y":4079388.0476000011}},{"attributes":{"FID":357,"Rotation":0,"Scale":0,"name_of_to":"JAYPUR","district":"BANKA","state":"BIHAR","ELEVATION":0,"Lat":24.584199905395508,"Long":86.844001770019531},"geometry":{"x":4679486.2775000036,"y":4079957.8920999989}},{"attributes":{"FID":358,"Rotation":0,"Scale":0,"name_of_to":"CHANDAN","district":"BANKA","state":"BIHAR","ELEVATION":0,"Lat":24.615100860595703,"Long":86.67449951171875},"geometry":{"x":4662506.0784000009,"y":4082497.9888999984}},{"attributes":{"FID":359,"Rotation":0,"Scale":0,"name_of_to":"BARHAT","district":"JAMUI","state":"BIHAR","ELEVATION":0,"Lat":25.010099411010742,"Long":86.291999816894531},"geometry":{"x":4622655.7418000028,"y":4123618.631099999}},{"attributes":{"FID":360,"Rotation":0,"Scale":0,"name_of_to":"MALEPUR","district":"JAMUI","state":"BIHAR","ELEVATION":0,"Lat":24.975500106811523,"Long":86.250503540039062},"geometry":{"x":4618715.6806999967,"y":4119678.5975000001}},{"attributes":{"FID":361,"Rotation":0,"Scale":0,"name_of_to":"GOBINDPUR","district":"NAWADA","state":"BIHAR","ELEVATION":0,"Lat":24.77440071105957,"Long":85.681198120117188},"geometry":{"x":4563274.9328000024,"y":4095468.5067999996}},{"attributes":{"FID":362,"Rotation":0,"Scale":0,"name_of_to":"RUPAU","district":"NAWADA","state":"BIHAR","ELEVATION":0,"Lat":24.856700897216797,"Long":85.75579833984375},"geometry":{"x":4570305.0469999984,"y":4104698.5916999988}},{"attributes":{"FID":363,"Rotation":0,"Scale":0,"name_of_to":"KAUA KOL","district":"NAWADA","state":"BIHAR","ELEVATION":0,"Lat":24.835500717163086,"Long":85.879096984863281},"geometry":{"x":4582605.1881999969,"y":4102898.5225000009}},{"attributes":{"FID":364,"Rotation":0,"Scale":0,"name_of_to":"SIKANDRA","district":"JAMUI","state":"BIHAR","ELEVATION":0,"Lat":24.95829963684082,"Long":86.023399353027344},"geometry":{"x":4596325.4042999968,"y":4116838.6479000002}},{"attributes":{"FID":365,"Rotation":0,"Scale":0,"name_of_to":"DARKHA","district":"JAMUI","state":"BIHAR","ELEVATION":0,"Lat":24.944999694824219,"Long":85.927299499511719},"geometry":{"x":4586885.2827999964,"y":4114988.6598000005}},{"attributes":{"FID":366,"Rotation":0,"Scale":0,"name_of_to":"LAKHAIPUR","district":"GAYA","state":"BIHAR","ELEVATION":0,"Lat":24.584499359130859,"Long":85.096900939941406},"geometry":{"x":4506114.1777999997,"y":4072638.4472000003}},{"attributes":{"FID":367,"Rotation":0,"Scale":0,"name_of_to":"BARACHATI","district":"GAYA","state":"BIHAR","ELEVATION":0,"Lat":24.502599716186523,"Long":85.025199890136719},"geometry":{"x":4499314.065700002,"y":4063488.3597999997}},{"attributes":{"FID":368,"Rotation":0,"Scale":0,"name_of_to":"MEGHATARI","district":"NAWADA","state":"BIHAR","ELEVATION":0,"Lat":24.577299118041992,"Long":85.559097290039062},"geometry":{"x":4552024.7201000005,"y":4073588.2910999991}},{"attributes":{"FID":369,"Rotation":0,"Scale":0,"name_of_to":"SUGHARI","district":"NAWADA","state":"BIHAR","ELEVATION":0,"Lat":24.739700317382812,"Long":85.630996704101562},"geometry":{"x":4558454.8606000021,"y":4091498.4781000018}},{"attributes":{"FID":370,"Rotation":0,"Scale":0,"name_of_to":"AKBARPUR","district":"NAWADA","state":"BIHAR","ELEVATION":0,"Lat":24.748699188232422,"Long":85.537498474121094},"geometry":{"x":4549144.749499999,"y":4092108.5199000016}},{"attributes":{"FID":371,"Rotation":0,"Scale":0,"name_of_to":"SIRDALA","district":"NAWADA","state":"BIHAR","ELEVATION":0,"Lat":24.648899078369141,"Long":85.406402587890625},"geometry":{"x":4536564.5643000007,"y":4080768.425999999}},{"attributes":{"FID":372,"Rotation":0,"Scale":0,"name_of_to":"NARHAT","district":"NAWADA","state":"BIHAR","ELEVATION":0,"Lat":24.772300720214844,"Long":85.422096252441406},"geometry":{"x":4537604.6243999973,"y":4094228.5863000005}},{"attributes":{"FID":373,"Rotation":0,"Scale":0,"name_of_to":"HISUA","district":"NAWADA","state":"BIHAR","ELEVATION":0,"Lat":24.833700180053711,"Long":85.41400146484375},"geometry":{"x":4536544.6319999993,"y":4100858.6671000011}},{"attributes":{"FID":374,"Rotation":0,"Scale":0,"name_of_to":"WAZIRGANJ","district":"GAYA","state":"BIHAR","ELEVATION":0,"Lat":24.795600891113281,"Long":85.236396789550781},"geometry":{"x":4519114.4144999981,"y":4096058.6772999987}},{"attributes":{"FID":375,"Rotation":0,"Scale":0,"name_of_to":"JAMUAWAN","district":"GAYA","state":"BIHAR","ELEVATION":0,"Lat":24.802600860595703,"Long":85.294097900390625},"geometry":{"x":4524794.4814999998,"y":4097028.6666000001}},{"attributes":{"FID":376,"Rotation":0,"Scale":0,"name_of_to":"NARDIGANJ","district":"NAWADA","state":"BIHAR","ELEVATION":0,"Lat":24.927200317382812,"Long":85.42919921875},"geometry":{"x":4537664.683600001,"y":4111068.7848000005}},{"attributes":{"FID":377,"Rotation":0,"Scale":0,"name_of_to":"WORHANPUR","district":"NAWADA","state":"BIHAR","ELEVATION":0,"Lat":24.950199127197266,"Long":85.528900146484375},"geometry":{"x":4547434.8093999997,"y":4113948.7800999992}},{"attributes":{"FID":378,"Rotation":0,"Scale":0,"name_of_to":"QADIRGANJ","district":"NAWADA","state":"BIHAR","ELEVATION":0,"Lat":24.909700393676758,"Long":85.582901000976562},"geometry":{"x":4552954.8586999997,"y":4109758.7157000005}},{"attributes":{"FID":379,"Rotation":0,"Scale":0,"name_of_to":"PAKRIBARAWAN","district":"NAWADA","state":"BIHAR","ELEVATION":0,"Lat":24.954799652099609,"Long":85.735099792480469},"geometry":{"x":4567815.0556000024,"y":4115258.7307000011}},{"attributes":{"FID":380,"Rotation":0,"Scale":0,"name_of_to":"FATEHPUR","district":"GAYA","state":"BIHAR","ELEVATION":0,"Lat":24.623300552368164,"Long":85.229698181152344},"geometry":{"x":4519144.3458999991,"y":4077328.4563000016}},{"attributes":{"FID":381,"Rotation":0,"Scale":0,"name_of_to":"TANKUPPA","district":"GAYA","state":"BIHAR","ELEVATION":0,"Lat":24.69420051574707,"Long":85.138801574707031},"geometry":{"x":4509844.2633000016,"y":4084698.5753000006}},{"attributes":{"FID":382,"Rotation":0,"Scale":0,"name_of_to":"WARIS ALIGANJ","district":"NAWADA","state":"BIHAR","ELEVATION":0,"Lat":25.009899139404297,"Long":85.63189697265625},"geometry":{"x":4557364.949500002,"y":4120828.8286999986}},{"attributes":{"FID":383,"Rotation":0,"Scale":0,"name_of_to":"GIRIAK","district":"NALANDA","state":"BIHAR","ELEVATION":0,"Lat":25.031700134277344,"Long":85.530998229980469},"geometry":{"x":4547294.8377000019,"y":4122798.8916000016}},{"attributes":{"FID":384,"Rotation":0,"Scale":0,"name_of_to":"MANPUR","district":"GAYA","state":"BIHAR","ELEVATION":0,"Lat":24.818399429321289,"Long":85.028602600097656},"geometry":{"x":4498434.1796000004,"y":4097778.7642999999}},{"attributes":{"FID":385,"Rotation":0,"Scale":0,"name_of_to":"CHAKAND","district":"GAYA","state":"BIHAR","ELEVATION":0,"Lat":24.89739990234375,"Long":84.9718017578125},"geometry":{"x":4492504.1401999965,"y":4106158.8900000006}},{"attributes":{"FID":386,"Rotation":0,"Scale":0,"name_of_to":"BELA","district":"GAYA","state":"BIHAR","ELEVATION":0,"Lat":24.965499877929688,"Long":84.965797424316406},"geometry":{"x":4491644.1520999968,"y":4113528.9774999991}},{"attributes":{"FID":387,"Rotation":0,"Scale":0,"name_of_to":"PANCHAMPUR","district":"GAYA","state":"BIHAR","ELEVATION":0,"Lat":24.895999908447266,"Long":84.85479736328125},"geometry":{"x":4480924.0055999979,"y":4105598.9197000004}},{"attributes":{"FID":388,"Rotation":0,"Scale":0,"name_of_to":"KASTHA","district":"GAYA","state":"BIHAR","ELEVATION":0,"Lat":24.809000015258789,"Long":84.930496215820312},"geometry":{"x":4488744.0565000027,"y":4096418.7884000018}},{"attributes":{"FID":389,"Rotation":0,"Scale":0,"name_of_to":"BARA","district":"GAYA","state":"BIHAR","ELEVATION":0,"Lat":24.61829948425293,"Long":84.940597534179688},"geometry":{"x":4490474.0044,"y":4075748.5355000012}},{"attributes":{"FID":390,"Rotation":0,"Scale":0,"name_of_to":"PELADIH","district":"GAYA","state":"BIHAR","ELEVATION":0,"Lat":24.677200317382812,"Long":84.876296997070312},"geometry":{"x":4483873.9509000033,"y":4081928.6356000006}},{"attributes":{"FID":391,"Rotation":0,"Scale":0,"name_of_to":"DOBHI","district":"GAYA","state":"BIHAR","ELEVATION":0,"Lat":24.527900695800781,"Long":84.906402587890625},"geometry":{"x":4487423.9362000003,"y":4065818.432500001}},{"attributes":{"FID":392,"Rotation":0,"Scale":0,"name_of_to":"HARDAWAN","district":"GAYA","state":"BIHAR","ELEVATION":0,"Lat":24.495599746704102,"Long":84.862297058105469},"geometry":{"x":4483163.8694000021,"y":4062168.4109000005}},{"attributes":{"FID":393,"Rotation":0,"Scale":0,"name_of_to":"DARIAURA","district":"GAYA","state":"BIHAR","ELEVATION":0,"Lat":24.585899353027344,"Long":84.737899780273438},"geometry":{"x":4470473.7591999993,"y":4071548.5626999997}},{"attributes":{"FID":394,"Rotation":0,"Scale":0,"name_of_to":"GURUA","district":"GAYA","state":"BIHAR","ELEVATION":0,"Lat":24.665000915527344,"Long":84.770500183105469},"geometry":{"x":4473423.8216999993,"y":4080238.6526999995}},{"attributes":{"FID":395,"Rotation":0,"Scale":0,"name_of_to":"KASMAN","district":"AURANGABAD","state":"BIHAR","ELEVATION":0,"Lat":24.730199813842773,"Long":84.66619873046875},"geometry":{"x":4462843.7232000008,"y":4086968.7677999996}},{"attributes":{"FID":396,"Rotation":0,"Scale":0,"name_of_to":"BARWAN","district":"GAYA","state":"BIHAR","ELEVATION":0,"Lat":24.769899368286133,"Long":84.777999877929688},"geometry":{"x":4473783.8730000034,"y":4091648.7818999998}},{"attributes":{"FID":397,"Rotation":0,"Scale":0,"name_of_to":"DOBUR","district":"GAYA","state":"BIHAR","ELEVATION":0,"Lat":24.801399230957031,"Long":84.714599609375},"geometry":{"x":4467383.8105000034,"y":4094858.8447999991}},{"attributes":{"FID":398,"Rotation":0,"Scale":0,"name_of_to":"RAFIGANJ","district":"AURANGABAD","state":"BIHAR","ELEVATION":0,"Lat":24.805999755859375,"Long":84.639701843261719},"geometry":{"x":4459943.7184000015,"y":4095118.872299999}},{"attributes":{"FID":399,"Rotation":0,"Scale":0,"name_of_to":"WAR","district":"AURANGABAD","state":"BIHAR","ELEVATION":0,"Lat":24.722099304199219,"Long":84.516700744628906},"geometry":{"x":4448043.5529000014,"y":4085608.8110000007}},{"attributes":{"FID":400,"Rotation":0,"Scale":0,"name_of_to":"RANIGANJ","district":"AURANGABAD","state":"BIHAR","ELEVATION":0,"Lat":24.681499481201172,"Long":84.520301818847656},"geometry":{"x":4448543.5412999988,"y":4081208.7531999983}},{"attributes":{"FID":401,"Rotation":0,"Scale":0,"name_of_to":"MADANPUR","district":"AURANGABAD","state":"BIHAR","ELEVATION":0,"Lat":24.651899337768555,"Long":84.580596923828125},"geometry":{"x":4454633.5987000018,"y":4078198.7014000006}},{"attributes":{"FID":402,"Rotation":0,"Scale":0,"name_of_to":"DEO","district":"AURANGABAD","state":"BIHAR","ELEVATION":0,"Lat":24.656600952148438,"Long":84.439598083496094},"geometry":{"x":4440623.438500002,"y":4078258.7514999993}},{"attributes":{"FID":403,"Rotation":0,"Scale":0,"name_of_to":"CHHAKARBANDHA","district":"GAYA","state":"BIHAR","ELEVATION":0,"Lat":24.495199203491211,"Long":84.452499389648438},"geometry":{"x":4442453.3979000002,"y":4060778.5436999984}},{"attributes":{"FID":404,"Rotation":0,"Scale":0,"name_of_to":"DUMARIA","district":"GAYA","state":"BIHAR","ELEVATION":0,"Lat":24.437900543212891,"Long":84.390998840332031},"geometry":{"x":4436543.3025000021,"y":4054358.4868000001}},{"attributes":{"FID":405,"Rotation":0,"Scale":0,"name_of_to":"MAIGARA","district":"GAYA","state":"BIHAR","ELEVATION":0,"Lat":24.44219970703125,"Long":84.485000610351562},"geometry":{"x":4445873.4122999981,"y":4055128.4679999985}},{"attributes":{"FID":406,"Rotation":0,"Scale":0,"name_of_to":"IMAMGANJ","district":"GAYA","state":"BIHAR","ELEVATION":0,"Lat":24.451900482177734,"Long":84.591499328613281},"geometry":{"x":4456413.5380000025,"y":4056518.4387999997}},{"attributes":{"FID":407,"Rotation":0,"Scale":0,"name_of_to":"ROSHANGANJ","district":"GAYA","state":"BIHAR","ELEVATION":0,"Lat":24.530599594116211,"Long":84.723503112792969},"geometry":{"x":4469253.7210000008,"y":4065488.4974999987}},{"attributes":{"FID":408,"Rotation":0,"Scale":0,"name_of_to":"KOCH","district":"GAYA","state":"BIHAR","ELEVATION":0,"Lat":24.912099838256836,"Long":84.786003112792969},"geometry":{"x":4474043.9292000011,"y":4107118.9631000012}},{"attributes":{"FID":409,"Rotation":0,"Scale":0,"name_of_to":"OBRA","district":"AURANGABAD","state":"BIHAR","ELEVATION":0,"Lat":24.888200759887695,"Long":84.378700256347656},"geometry":{"x":4433803.4549999982,"y":4103209.0612000003}},{"attributes":{"FID":410,"Rotation":0,"Scale":0,"name_of_to":"PAWAI","district":"AURANGABAD","state":"BIHAR","ELEVATION":0,"Lat":24.722099304199219,"Long":84.323997497558594},"geometry":{"x":4428933.3288000003,"y":4085008.8751000017}},{"attributes":{"FID":411,"Rotation":0,"Scale":0,"name_of_to":"SONAURA","district":"AURANGABAD","state":"BIHAR","ELEVATION":0,"Lat":24.730600357055664,"Long":84.201499938964844},"geometry":{"x":4416763.1894000024,"y":4085568.9228000008}},{"attributes":{"FID":412,"Rotation":0,"Scale":0,"name_of_to":"KUTUMBA","district":"AURANGABAD","state":"BIHAR","ELEVATION":0,"Lat":24.609699249267578,"Long":84.232597351074219},"geometry":{"x":4420243.1840000004,"y":4072528.7595000006}},{"attributes":{"FID":413,"Rotation":0,"Scale":0,"name_of_to":"AMBA","district":"AURANGABAD","state":"BIHAR","ELEVATION":0,"Lat":24.628900527954102,"Long":84.279998779296875},"geometry":{"x":4424883.2431999967,"y":4074758.7696999982}},{"attributes":{"FID":414,"Rotation":0,"Scale":0,"name_of_to":"ROHTASGARH","district":"ROHTAS","state":"BIHAR","ELEVATION":0,"Lat":24.621400833129883,"Long":83.902496337890625},"geometry":{"x":4387442.8144000024,"y":4072858.882100001}},{"attributes":{"FID":415,"Rotation":0,"Scale":0,"name_of_to":"TUMHA","district":"ROHTAS","state":"BIHAR","ELEVATION":0,"Lat":24.741199493408203,"Long":84.026199340820312},"geometry":{"x":4399343.0003999993,"y":4086208.9934}},{"attributes":{"FID":416,"Rotation":0,"Scale":0,"name_of_to":"AKORHA","district":"AURANGABAD","state":"BIHAR","ELEVATION":0,"Lat":24.761100769042969,"Long":84.183998107910156},"geometry":{"x":4414923.1833000034,"y":4088828.9649999999}},{"attributes":{"FID":417,"Rotation":0,"Scale":0,"name_of_to":"KARWANDIYA","district":"ROHTAS","state":"BIHAR","ELEVATION":0,"Lat":24.944099426269531,"Long":84.084098815917969},"geometry":{"x":4404443.1334000006,"y":4108399.2265000008}},{"attributes":{"FID":418,"Rotation":0,"Scale":0,"name_of_to":"CHANARI","district":"ROHTAS","state":"BIHAR","ELEVATION":0,"Lat":24.911300659179688,"Long":83.789596557617188},"geometry":{"x":4375382.7908999994,"y":4104029.2829999998}},{"attributes":{"FID":419,"Rotation":0,"Scale":0,"name_of_to":"MALAHIPUR","district":"ROHTAS","state":"BIHAR","ELEVATION":0,"Lat":24.848600387573242,"Long":83.789100646972656},"geometry":{"x":4375522.7691999972,"y":4097219.2038000003}},